url_route_id,seq,stage_id,stage_name,latitude,longitude
7000,1,12249,Nizamuddin Railway Station,28.586725234985350,77.252876281738280
7000,2,12250,Bhgoal,28.581989288330078,77.251724243164060
7000,3,11755,Ashram,28.571836471557617,77.258979797363280
7000,4,11542,Nehru Nagar,28.568733215332030,77.253913879394530
7000,5,11543,Garhi,28.562183380126953,77.251609802246100
7000,6,11756,Snp Depot,28.560657501220703,77.260704040527340
7000,7,12251,Modi Mills,28.555557250976562,77.265121459960940
7000,8,12069,Kalkaji Mandir,28.548414230346680,77.262420654296880
7000,9,12523,Kalkaji Depot,28.538253784179688,77.266967773437500
7000,10,11289,Kalkaji Market,28.544437408447266,77.259559631347660
7000,11,12068,Paras Cinema,28.547700881958008,77.254096984863280
7000,12,12524,O S Communication,28.542570114135742,77.241516113281250
7000,13,12757,Chirag Delhi,28.540555953979492,77.232345581054690
7000,14,12758,Seikh Sarai,28.533988952636720,77.232147216796880
7000,15,11544,Ambedkar Nagar Sector 4,28.523628234863280,77.237976074218750
7000,16,12252,Ambedkar Nagar Terminal,28.515916824340820,77.225952148437500
7000,17,11545,Saket Crossing,28.517536163330078,77.216484069824220
7000,18,12759,Saket Block J,28.519649505615234,77.215843200683600
7000,19,11290,Saket Block E,28.522291183471680,77.208145141601560
7000,20,12253,Said Ul Ajab,28.521131515502930,77.200035095214840
7000,21,11291,Lado Sarai Crossing,28.527294158935547,77.189849853515620
7000,22,11734,Qutab,28.526382446289062,77.187347412109380
7000,23,12070,Mehrauli,28.522644042968750,77.182205200195310
7001,1,11538,Railway Station,28.660074234008790,77.231613159179690
7001,2,12515,Red Fort,28.653621673583984,77.236427307128900
7001,3,12062,Daryaganj,28.643184661865234,77.240386962890620
7001,4,11277,Delhi Gate,28.640836715698242,77.240997314453120
7001,5,12248,Ito,28.627901077270508,77.244697570800780
7001,6,12520,Supreme Court,28.621709823608400,77.237632751464840
7001,7,12753,National Stadium,28.610494613647460,77.240066528320310
7001,8,11546,Sunder Nagar Golf Club,28.602073669433594,77.240631103515620
7001,9,11040,Dps Mathura Road,28.598724365234375,77.240600585937500
7001,10,12254,Nizamuddin Police Station,28.591634750366210,77.244590759277340
7001,11,12250,Bhgoal,28.581989288330078,77.251724243164060
7001,12,11755,Ashram,28.571836471557617,77.258979797363280
7001,13,11542,Nehru Nagar,28.568733215332030,77.253913879394530
7001,14,11543,Garhi,28.562183380126953,77.251609802246100
7001,15,11756,Snp Depot,28.560657501220703,77.260704040527340
7001,16,12251,Modi Mills,28.555557250976562,77.265121459960940
7001,17,12069,Kalkaji Mandir,28.548414230346680,77.262420654296880
7001,18,12523,Kalkaji Depot,28.538253784179688,77.266967773437500
7001,19,12756,Rampuri,28.536186218261720,77.260093688964840
7001,20,12071,Kalkaji Dda Flats,28.533401489257812,77.259689331054690
7002,1,11525,Indirapuri Loni Border,28.735681533813477,77.288650512695310
7002,2,12508,Indirapuri Police Station,28.728439331054688,77.289039611816400
7002,3,11030,Jawahar Nagar,28.722141265869140,77.289443969726560
7002,4,12788,Johripur Crossing,28.710901260375977,77.290824890136720
7002,5,11526,Loni Road Crossing,28.701208114624023,77.291732788085940
7002,6,11333,Lr Road Mig Flats,28.698722839355470,77.291877746582030
7002,7,12750,Jyoti Nagar,28.689256668090820,77.291625976562500
7002,8,12517,Babarpur Extension,28.685276031494140,77.282104492187500
7002,9,12745,Zafarbad School,28.683456420898438,77.275215148925780
7002,10,12746,Seelampur,28.673505783081055,77.270202636718750
7002,11,11032,Shastri Park,28.672294616699220,77.257118225097660
7002,12,11031,Shyamgiri Mandir,28.674053192138672,77.247718811035160
7002,13,12727,Isbt,28.668561935424805,77.227951049804690
7002,14,11576,Tis Hazari Court,28.666715621948242,77.219253540039060
7002,15,11740,Ice Factory,28.667798995971680,77.209869384765620
7002,16,11577,Azad Market,28.663154602050780,77.207077026367190
7002,17,12550,Filmistan,28.658660888671875,77.202987670898440
7002,18,11573,Karol Bagh Terminal,28.648414611816406,77.200660705566400
7002,19,11057,Desh Bandhu Gupta Market,28.651800155639650,77.194801330566400
7002,20,12116,Dev Nagar,28.656223297119140,77.187957763671880
7002,21,12290,Kikarwala Chowk,28.652261734008790,77.185272216796880
7002,22,11070,Rs Satsang,28.644784927368164,77.181045532226560
7002,23,11024,Patel Nagar East,28.642364501953125,77.173759460449220
7002,24,12055,Patel Nagar West,28.647535324096680,77.165222167968750
7002,25,11025,Shadipur Depot,28.653007507324220,77.155685424804690
7002,26,12789,Naraina Vihar Depot,28.648475646972656,77.151023864746100
7002,27,12083,Loha Mandi,28.639650344848633,77.144004821777340
7002,28,11301,Payal Cinema,28.633127212524414,77.139610290527340
7002,29,11552,Naraina Vihar,28.626178741455078,77.134490966796880
7002,30,11780,Mayapuri Depot,28.636665344238280,77.128707885742190
7002,31,11019,Metal Forging,28.630645751953125,77.124267578125000
7002,32,12291,Beriwala Bagh,28.631456375122070,77.112037658691400
7002,33,12292,Hari Nagar Clock Towerindirapuri Loni Border,28.624761581420900,77.110214233398440
7002,34,11018,Hari Nagar Clock Tower,28.624692916870117,77.110389709472660
7003,1,12747,Shahdara,28.674108505249023,77.286193847656250
7003,2,11791,Kanti Nagar Bihari Colony,28.670505523681640,77.280860900878900
7003,3,12511,Swaran Cinema,28.663631439208984,77.285636901855470
7003,4,12512,Hans Apartment,28.657989501953125,77.289962768554690
7003,5,12242,Jagatpuri Block A,28.651857376098633,77.293052673339840
7003,6,11033,Kk Crossing,28.644330978393555,77.298637390136720
7003,7,12266,Swasthya Vihar,28.639425277709960,77.292373657226560
7003,8,12267,Shakarpur,28.633625030517578,77.282386779785160
7003,9,12792,Shakarpur School Block,28.627044677734375,77.279418945312500
7003,10,12123,Mother Dairy,28.618696212768555,77.286758422851560
7003,11,11581,Samaspur Jahangir Village,28.615072250366210,77.284667968750000
7003,12,11071,Pushta Crossing,28.612668991088867,77.283638000488280
7003,13,12124,Mayur Vihar Phase 1 Crossing,28.604162216186523,77.288749694824220
7003,14,12793,Samachar Aparment,28.597133636474610,77.292015075683600
7003,15,12125,Hindon Regulator,28.588821411132812,77.297554016113280
7003,16,11072,Noida Sector 14,28.586740493774414,77.307312011718750
7003,17,12299,Noida Sector 2,28.583110809326172,77.313301086425780
7003,18,12557,Noida Depot,28.576534271240234,77.315780639648440
7003,19,11583,Atta Chowk,28.570043563842773,77.323905944824220
7003,20,11073,Noida Sector 28 29,28.569232940673828,77.328216552734380
7003,21,12794,Noida Sector 37 Crossing,28.561910629272460,77.338920593261720
7003,22,11074,Amity International School Sector 44,28.559009552001953,77.332237243652340
7003,23,11075,Kalindi Kunj,28.545259475708008,77.307922363281250
7003,24,12558,Abul Fazal Enclave,28.546586990356445,77.307075500488280
7003,25,11334,Jasola Village,28.540704727172850,77.297805786132810
7003,26,11076,Sarita Vihar Crossing,28.538291931152344,77.291969299316400
7003,27,11297,Sarita Vihar,28.532184600830078,77.286834716796880
7003,28,12532,Madanpur Khadar Crossing,28.527620315551758,77.289672851562500
7003,29,12294,Ali Crossing,28.514944076538086,77.296897888183600
7003,30,11077,Badarpur Mb Road,28.502019882202150,77.300270080566400
7004,1,11538,Railway Station,28.660074234008790,77.231613159179690
7004,2,11274,Isbt Mori Gate,28.669105529785156,77.228919982910160
7004,3,11576,Tis Hazari Court,28.666715621948242,77.219253540039060
7004,4,11740,Ice Factory,28.667798995971680,77.209869384765620
7004,5,11577,Azad Market,28.663154602050780,77.207077026367190
7004,6,12550,Filmistan,28.658660888671875,77.202987670898440
7004,7,11090,Ggs Marg,28.655347824096680,77.198997497558600
7004,8,11900,Liberty Cinema,28.660322189331055,77.188011169433600
7004,9,11022,Sarai Rohilla,28.662521362304688,77.182067871093750
7004,10,12314,Daya Basti,28.664442062377930,77.175712585449220
7004,11,12315,Zakhira,28.667617797851562,77.164146423339840
7004,12,12801,Rampura,28.671157836914062,77.157058715820310
7004,13,11742,Punjabi Bagh Terminal,28.667741775512695,77.137405395507810
7004,14,11348,Shivaji Park,28.674852371215820,77.130935668945310
7004,15,12811,Madipur Village Madipur Jj Colony,28.676305770874023,77.119873046875000
7004,16,11899,Ordinance Depot,28.677055358886720,77.114875793457030
7004,17,12137,Multan Nagar,28.678037643432617,77.105651855468750
7004,18,11800,Peeragarhi,28.679586410522460,77.092880249023440
7004,19,12217,Mangolpuri Block B,28.689556121826172,77.096603393554690
7004,20,12577,Mangolpuri Block D,28.696313858032227,77.093254089355470
7004,21,11326,Mangolpuri Block S,28.692361831665040,77.081985473632810
7004,22,12331,Mangolpuri Terminal Block Q,28.692613601684570,77.080841064453120
7005,1,11036,Anand Vihar Isbt,28.646951675415040,77.316032409667970
7005,2,12330,Ramprastha Crossing,28.660648345947266,77.319984436035160
7005,3,11532,Surya Nagar,28.667003631591797,77.321670532226560
7005,4,11752,Shahdara Border,28.676195144653320,77.321792602539060
7005,5,12067,Dilshad Garden Gt Road,28.676105499267578,77.313827514648440
7005,6,12066,Railway Crossing Flyover,28.675476074218750,77.303215026855470
7005,7,12747,Shahdara,28.674108505249023,77.286193847656250
7005,8,12241,Welcome,28.671798706054688,77.277565002441400
7005,9,12746,Seelampur,28.673505783081055,77.270202636718750
7005,10,11032,Shastri Park,28.672294616699220,77.257118225097660
7005,11,11031,Shyamgiri Mandir,28.674053192138672,77.247718811035160
7005,12,12727,Isbt,28.668561935424805,77.227951049804690
7005,13,11576,Tis Hazari Court,28.666715621948242,77.219253540039060
7005,14,11740,Ice Factory,28.667798995971680,77.209869384765620
7005,15,12112,Azad Market Dcm Chowk,28.662990570068360,77.206825256347660
7005,16,12550,Filmistan,28.658660888671875,77.202987670898440
7005,17,11090,Ggs Marg,28.655347824096680,77.198997497558600
7005,18,11900,Liberty Cinema,28.660322189331055,77.188011169433600
7005,19,11022,Sarai Rohilla,28.662521362304688,77.182067871093750
7005,20,12314,Daya Basti,28.664442062377930,77.175712585449220
7005,21,12315,Zakhira,28.667617797851562,77.164146423339840
7005,22,12801,Rampura,28.671157836914062,77.157058715820310
7005,23,11742,Punjabi Bagh Terminal,28.667741775512695,77.137405395507810
7005,24,11348,Shivaji Park,28.674852371215820,77.130935668945310
7005,25,11349,Madipur Village,28.675785064697266,77.123992919921880
7005,26,11893,Madipur Jj Colony,28.676357269287110,77.120330810546880
7005,27,11899,Ordinance Depot,28.677055358886720,77.114875793457030
7005,28,12137,Multan Nagar,28.678037643432617,77.105651855468750
7005,29,11800,Peeragarhi,28.679586410522460,77.092880249023440
7005,30,12568,Inder Enclave,28.680480957031250,77.084365844726560
7005,31,11051,Nangloi,28.681777954101562,77.066894531250000
7005,32,11050,Nangloi Jj Colony,28.682102203369140,77.054458618164060
7006,1,11036,Anand Vihar Isbt,28.646951675415040,77.316032409667970
7006,2,12330,Ramprastha Crossing,28.660648345947266,77.319984436035160
7006,3,11532,Surya Nagar,28.667003631591797,77.321670532226560
7006,4,11752,Shahdara Border,28.676195144653320,77.321792602539060
7006,5,12067,Dilshad Garden Gt Road,28.676105499267578,77.313827514648440
7006,6,12066,Railway Crossing Flyover,28.675476074218750,77.303215026855470
7006,7,12747,Shahdara,28.674108505249023,77.286193847656250
7006,8,12241,Welcome,28.671798706054688,77.277565002441400
7006,9,12746,Seelampur,28.673505783081055,77.270202636718750
7006,10,11032,Shastri Park,28.672294616699220,77.257118225097660
7006,11,11031,Shyamgiri Mandir,28.674053192138672,77.247718811035160
7006,12,12727,Isbt,28.668561935424805,77.227951049804690
7006,13,11576,Tis Hazari Court,28.666715621948242,77.219253540039060
7006,14,11740,Ice Factory,28.667798995971680,77.209869384765620
7006,15,12112,Azad Market Dcm Chowk,28.662990570068360,77.206825256347660
7006,16,12550,Filmistan,28.658660888671875,77.202987670898440
7006,17,11090,Ggs Marg,28.655347824096680,77.198997497558600
7006,18,11900,Liberty Cinema,28.660322189331055,77.188011169433600
7006,19,11022,Sarai Rohilla,28.662521362304688,77.182067871093750
7006,20,12314,Daya Basti,28.664442062377930,77.175712585449220
7006,21,12315,Zakhira,28.667617797851562,77.164146423339840
7006,22,12801,Rampura,28.671157836914062,77.157058715820310
7006,23,11742,Punjabi Bagh Terminal,28.667741775512695,77.137405395507810
7006,24,11348,Shivaji Park,28.674852371215820,77.130935668945310
7006,25,11349,Madipur Village,28.675785064697266,77.123992919921880
7006,26,11893,Madipur Jj Colony,28.676357269287110,77.120330810546880
7006,27,11899,Ordinance Depot,28.677055358886720,77.114875793457030
7006,28,12137,Multan Nagar,28.678037643432617,77.105651855468750
7006,29,11800,Peeragarhi,28.679586410522460,77.092880249023440
7006,30,12568,Inder Enclave,28.680480957031250,77.084365844726560
7006,31,11051,Nangloi,28.681777954101562,77.066894531250000
7006,32,11050,Nangloi Jj Colony,28.682102203369140,77.054458618164060
7006,33,12307,Kamaruddin Nagar Crossing,28.682079315185547,77.057319641113280
7006,34,11049,Swaran Park,28.682027816772460,77.041152954101560
7006,35,11588,Mundka,28.682346343994140,77.030532836914060
7006,36,11587,Oil Factory,28.684047698974610,77.008934020996100
7006,37,11341,Hirankudna Crossing,28.684982299804688,77.000968933105470
7006,38,12828,Ghevera Crossing,28.685384750366210,76.994621276855470
7006,39,11083,Ghevra Village,28.696311950683594,76.997871398925780
7006,40,12343,Sawda Jj Colony Block M,28.703586578369140,76.986122131347660
7006,41,12344,Ghevra Savda Jj Colony,28.703523635864258,76.981544494628900
7007,1,12057,Mori Gate Terminal,28.666227340698242,77.222167968750000
7007,2,12279,Isbt Ring Road,28.669170379638672,77.232391357421880
7007,3,11079,Yamuna Bazaar,28.664800643920900,77.235488891601560
7007,4,11316,Vijay Ghat,28.657703399658203,77.245018005371100
7007,5,11055,Shanti Van,28.649652481079100,77.245399475097660
7007,6,12546,Rajghat,28.641489028930664,77.246803283691400
7007,7,12816,Ito Ring Road,28.626855850219727,77.246971130371100
7007,8,12817,Ip Depot,28.620195388793945,77.248443603515620
7007,9,12584,Railway Crossing Ring Road,28.613574981689453,77.250869750976560
7007,10,11364,Sarai Kale Khan Isbt,28.589029312133790,77.258949279785160
7007,11,12799,Gurudwara Bala Sahib,28.581493377685547,77.266326904296880
7007,12,11781,Maharani Bagh,28.574829101562500,77.261940002441400
7007,13,11755,Ashram,28.571836471557617,77.258979797363280
7007,14,12765,Ishwar Nagar,28.561449050903320,77.266387939453120
7007,15,12081,Svd,28.554502487182617,77.271743774414060
7007,16,12262,Okhla Tank,28.548051834106445,77.276481628417970
7007,17,11297,Sarita Vihar,28.532184600830078,77.286834716796880
7007,18,12293,Madanpur Crossing,28.528654098510742,77.288536071777340
7007,19,12294,Ali Crossing,28.514944076538086,77.296897888183600
7007,20,12295,Badarpur,28.501802444458008,77.299972534179690
7007,21,11578,Jaitur Modh,28.500030517578125,77.312728881835940
7007,22,12117,Mithapur,28.500267028808594,77.315597534179690
7007,23,12118,Hari Nagar,28.504467010498047,77.320426940917970
7007,24,12296,Jaitpur Village,28.505584716796875,77.325271606445310
7008,1,11256,Gtb Nagar,28.697750091552734,77.207260131835940
7008,2,12038,Model Town Phase 2,28.703924179077150,77.190612792968750
7008,3,12039,Azadpur,28.708120346069336,77.177749633789060
7008,4,11324,Shalimar Bagh Crossing,28.703386306762695,77.168998718261720
7008,5,12109,Ashok Vihar Crossing,28.702207565307617,77.165771484375000
7008,6,12110,Prembari Bridge,28.697639465332030,77.156311035156250
7008,7,11516,Wazirpur Depot,28.693204879760742,77.154487609863280
7008,8,11020,Pitampura Block J D,28.701354980468750,77.134613037109380
7008,9,12493,Madhuban Chowk,28.702865600585938,77.132347106933600
7008,10,11725,Saraswati Vihar Block C,28.700296401977540,77.125480651855470
7008,11,11257,Puspanjali,28.695749282836914,77.110610961914060
7008,12,11724,Mangolpur School,28.694559097290040,77.106857299804690
7008,13,11784,Mangolpur Khurd,28.696817398071290,77.099014282226560
7008,14,11912,Rohini Avantika Crossing,28.698699951171875,77.096870422363280
7008,15,11107,Budh Vihar,28.704067230224610,77.087280273437500
7008,16,12827,Pooth Kalan,28.714176177978516,77.077026367187500
7008,17,11913,Begampur,28.722291946411133,77.064636230468750
7008,18,11370,Karala Pathshala,28.726572036743164,77.052772521972660
7008,19,12594,Rama Vihar,28.728788375854492,77.045257568359380
7008,20,11556,Karala Village,28.731578826904297,77.031929016113280
7008,21,12086,Madanpur Dabas,28.712514877319336,77.030967712402340
7008,22,12087,Mubarakpur Crossing,28.706888198852540,77.040733337402340
7008,23,11914,Mubarakpur Dabas,28.711139678955078,77.037651062011720
7009,1,12517,Babarpur Extension,28.685276031494140,77.282104492187500
7009,2,12580,Yamuna Vihar Block C 12,28.697589874267578,77.281829833984380
7009,3,11039,Yamuna Vihar Block C 4,28.700695037841797,77.283569335937500
7009,4,12752,Yamuna Vihar Block C 1,28.702529907226562,77.274009704589840
7009,5,12247,Bhajanpura,28.703397750854492,77.264022827148440
7009,6,11539,Khajuri,28.705270767211914,77.253776550292970
7009,7,12114,Nanaksar,28.708822250366210,77.241561889648440
7009,8,12163,Wazirabad,28.711179733276367,77.227401733398440
7009,9,12560,Gandhi Vihar,28.721324920654297,77.218605041503900
7009,10,11078,Jagatpur Crossing,28.722248077392578,77.216247558593750
7009,11,12534,Burari Crossing,28.728748321533203,77.196434020996100
7009,12,12767,Tomar Colony,28.730401992797850,77.190628051757810
7009,13,12263,Mukandpur Crossing,28.731805801391600,77.184913635253900
7009,14,11006,Jahangirpuri Crossing,28.727268218994140,77.162574768066400
7009,15,11029,Bhalswa Crossing,28.737543106079100,77.165946960449220
7009,16,11505,Gtk Bypass,28.734912872314453,77.155960083007810
7009,17,11007,Badli Crossing,28.728519439697266,77.146354675292970
7009,18,11003,Haidarpur Water Works,28.721250534057617,77.140518188476560
7009,19,12725,Uttari Pitampura,28.714672088623047,77.139053344726560
7009,20,12829,Pitampura Power House,28.707738876342773,77.134468078613280
7009,21,12493,Madhuban Chowk,28.702865600585938,77.132347106933600
7009,22,11725,Saraswati Vihar Block C,28.700296401977540,77.125480651855470
7009,23,11257,Puspanjali,28.695749282836914,77.110610961914060
7009,24,12346,Mangolpuri School,28.694589614868164,77.106811523437500
7009,25,12217,Mangolpuri Block B,28.689556121826172,77.096603393554690
7009,26,11800,Peeragarhi,28.679586410522460,77.092880249023440
7009,27,12568,Inder Enclave,28.680480957031250,77.084365844726560
7009,28,12830,Jwalapuri,28.681255340576172,77.079315185546880
7009,29,11051,Nangloi,28.681777954101562,77.066894531250000
7009,30,11050,Nangloi Jj Colony,28.682102203369140,77.054458618164060
7010,1,12761,Lajpat Nagar,28.564973831176758,77.242500305175780
7010,2,11543,Garhi,28.562183380126953,77.251609802246100
7010,3,11756,Snp Depot,28.560657501220703,77.260704040527340
7010,4,12251,Modi Mills,28.555557250976562,77.265121459960940
7010,5,12069,Kalkaji Mandir,28.548414230346680,77.262420654296880
7010,6,12523,Kalkaji Depot,28.538253784179688,77.266967773437500
7010,7,12756,Rampuri,28.536186218261720,77.260093688964840
7010,8,12071,Kalkaji Dda Flats,28.533401489257812,77.259689331054690
7010,9,11299,Hamdard Nagar,28.511898040771484,77.249656677246100
7010,10,11761,Batra Hospital,28.512125015258790,77.245300292968750
7010,11,12533,Khanpur Village,28.515008926391600,77.229576110839840
7010,12,12252,Ambedkar Nagar Terminal,28.515916824340820,77.225952148437500
7010,13,11545,Saket Crossing,28.517536163330078,77.216484069824220
7010,14,12253,Said Ul Ajab,28.521131515502930,77.200035095214840
7010,15,12132,Lado Sarai,28.522438049316406,77.193817138671880
7010,16,11734,Qutab,28.526382446289062,77.187347412109380
7010,17,12070,Mehrauli,28.522644042968750,77.182205200195310
7011,1,12070,Mehrauli,28.522644042968750,77.182205200195310
7011,2,11734,Qutab,28.526382446289062,77.187347412109380
7011,3,12581,Police Training School,28.532876968383790,77.195838928222660
7011,4,12332,Adhchini,28.536718368530273,77.195960998535160
7011,5,12167,Iit Gate,28.545883178710938,77.201896667480470
7011,6,12166,Green Park,28.557603836059570,77.206649780273440
7011,7,12298,Sj Hospital,28.569580078125000,77.204544067382810
7011,8,11778,Ina Market,28.579391479492188,77.208480834960940
7011,9,12077,Sj Airport,28.584251403808594,77.212532043457030
7011,10,12076,Sj Madrasa,28.588256835937500,77.212974548339840
7011,11,12527,Tughlak Road Police Station,28.600152969360350,77.211357116699220
7011,12,12075,Sunehari Masjid Block G,28.609672546386720,77.210098266601560
7011,13,11757,Krishi Bhawan,28.616844177246094,77.213714599609380
7011,14,12090,All India Radio Ndpo,28.621789932250977,77.211669921875000
7011,15,12742,Kendriya Terminal,28.617433547973633,77.204261779785160
7011,16,12236,Rml Hospital,28.624507904052734,77.201179504394530
7011,17,12743,Ridge Road,28.632099151611328,77.190185546875000
7011,18,11741,Shankar Road,28.638833999633790,77.179252624511720
7011,19,11024,Patel Nagar East,28.642364501953125,77.173759460449220
7011,20,11318,Rajinder Nagar Block R,28.634382247924805,77.174026489257810
7011,21,12130,Iasr,28.626794815063477,77.163322448730470
7011,22,12783,Todapur,28.623901367187500,77.156539916992190
7011,23,12285,Inderpuri Block A,28.628877639770508,77.151268005371100
7011,24,11118,Inderpuri Jj Colony Krishi Kunj,28.637613296508790,77.145606994628900
7012,1,11036,Anand Vihar Isbt,28.646951675415040,77.316032409667970
7012,2,12264,Ghazipur Depot,28.640693664550780,77.315757751464840
7012,3,11044,Hasanpur Depot,28.635795593261720,77.307395935058600
7012,4,12265,Karkardooma Crossing,28.643129348754883,77.297554016113280
7012,5,12266,Swasthya Vihar,28.639425277709960,77.292373657226560
7012,6,12267,Shakarpur,28.633625030517578,77.282386779785160
7012,7,12268,Tt Post,28.628004074096680,77.266441345214840
7012,8,11045,Rainywell,28.628261566162110,77.260902404785160
7012,9,12768,Delhi Secretariat,28.627910614013672,77.252380371093750
7012,10,12769,Ito Agcr,28.627954483032227,77.244438171386720
7012,11,12770,Mandi House,28.625720977783203,77.234222412109380
7012,12,12771,Tolstoy Marg Crossing,28.626474380493164,77.220344543457030
7012,13,12074,Jantar Mantar,28.627784729003906,77.216285705566400
7012,14,11283,Patel Chowk Palika Kendra,28.628593444824220,77.216880798339840
7012,15,12235,Ndpo,28.626352310180664,77.205436706542970
7012,16,12742,Kendriya Terminal,28.617433547973633,77.204261779785160
7012,17,12236,Rml Hospital,28.624507904052734,77.201179504394530
7012,18,11300,Ridge Road Crossing,28.633331298828125,77.189201354980470
7012,19,11741,Shankar Road,28.638833999633790,77.179252624511720
7012,20,11024,Patel Nagar East,28.642364501953125,77.173759460449220
7012,21,12055,Patel Nagar West,28.647535324096680,77.165222167968750
7012,22,11025,Shadipur Depot,28.653007507324220,77.155685424804690
7012,23,11046,Naraina Depot,28.648904800415040,77.151199340820310
7012,24,12083,Loha Mandi,28.639650344848633,77.144004821777340
7012,25,11301,Payal Cinema,28.633127212524414,77.139610290527340
7012,26,11552,Naraina Vihar,28.626178741455078,77.134490966796880
7012,27,11780,Mayapuri Depot,28.636665344238280,77.128707885742190
7012,28,11019,Metal Forging,28.630645751953125,77.124267578125000
7012,29,12291,Beriwala Bagh,28.631456375122070,77.112037658691400
7012,30,11018,Hari Nagar Clock Tower,28.624692916870117,77.110389709472660
7013,1,12249,Nizamuddin Railway Station,28.586725234985350,77.252876281738280
7013,2,12250,Bhgoal,28.581989288330078,77.251724243164060
7013,3,12254,Nizamuddin Police Station,28.591634750366210,77.244590759277340
7013,4,11040,Dps Mathura Road,28.598724365234375,77.240600585937500
7013,5,12105,Golf Club Sunder Nagar,28.601268768310547,77.237884521484380
7013,6,12753,National Stadium,28.610494613647460,77.240066528320310
7013,7,12520,Supreme Court,28.621709823608400,77.237632751464840
7013,8,12248,Ito,28.627901077270508,77.244697570800780
7013,9,11277,Delhi Gate,28.640836715698242,77.240997314453120
7013,10,12062,Daryaganj,28.643184661865234,77.240386962890620
7013,11,12515,Red Fort,28.653621673583984,77.236427307128900
7013,12,12727,Isbt,28.668561935424805,77.227951049804690
7013,13,12037,Ip College,28.680036544799805,77.223548889160160
7013,14,11005,Old Secretariat,28.684141159057617,77.222259521484380
7013,15,12728,Mall Road,28.693445205688477,77.218879699707030
7013,16,11731,Ins Hostel,28.696075439453125,77.211784362792970
7013,17,11256,Gtb Nagar,28.697750091552734,77.207260131835940
7013,18,12038,Model Town Phase 2,28.703924179077150,77.190612792968750
7013,19,12039,Azadpur,28.708120346069336,77.177749633789060
7013,20,12495,Adarsh Nagar,28.716297149658203,77.170440673828120
7013,21,11006,Jahangirpuri Crossing,28.727268218994140,77.162574768066400
7013,22,11379,Jahangirpuri Block B,28.731237411499023,77.169403076171880
7013,23,11029,Bhalswa Crossing,28.737543106079100,77.165946960449220
7013,24,11380,Shradhanand Colony,28.746694564819336,77.160316467285160
7013,25,12175,Saroop Nagar Jj Colony Bhalswa,28.753625869750977,77.160491943359380
7014,1,12614,Dr Mukherjee Nagar Bandh,28.709224700927734,77.213867187500000
7014,2,11596,Indira Vihar,28.706264495849610,77.212226867675780
7014,3,12575,Bbm Depot,28.704088211059570,77.211273193359380
7014,4,11256,Gtb Nagar,28.697750091552734,77.207260131835940
7014,5,11731,Ins Hostel,28.696075439453125,77.211784362792970
7014,6,12728,Mall Road,28.693445205688477,77.218879699707030
7014,7,11005,Old Secretariat,28.684141159057617,77.222259521484380
7014,8,12037,Ip College,28.680036544799805,77.223548889160160
7014,9,12727,Isbt,28.668561935424805,77.227951049804690
7014,10,12515,Red Fort,28.653621673583984,77.236427307128900
7014,11,12062,Daryaganj,28.643184661865234,77.240386962890620
7014,12,11277,Delhi Gate,28.640836715698242,77.240997314453120
7014,13,11385,Ito Bahadur Shah Zafar Marg,28.627901077270508,77.244697570800780
7014,14,12520,Supreme Court,28.621709823608400,77.237632751464840
7014,15,11125,Patiala House,28.616685867309570,77.234123229980470
7014,16,12842,National Stadium Baroda House,28.613349914550780,77.234703063964840
7014,17,12255,Shahjahan Road,28.607065200805664,77.226936340332030
7014,18,12256,Sujan Singh Park,28.600975036621094,77.229408264160160
7014,19,12257,Bharti Nagar,28.597682952880860,77.228492736816400
7014,20,12356,Lodhi Colony Block 8,28.579679489135742,77.216743469238280
7014,21,12357,Sewa Nagar Railway Crossing,28.579532623291016,77.229446411132810
7015,1,12742,Kendriya Terminal,28.617433547973633,77.204261779785160
7015,2,11041,Akashwani Bhawan Ndpo,28.620754241943360,77.212631225585940
7015,3,11757,Krishi Bhawan,28.616844177246094,77.213714599609380
7015,4,12780,Ferozshah Road,28.620723724365234,77.220558166503900
7015,5,12770,Mandi House,28.625720977783203,77.234222412109380
7015,6,12248,Ito,28.627901077270508,77.244697570800780
7015,7,11277,Delhi Gate,28.640836715698242,77.240997314453120
7015,8,12062,Daryaganj,28.643184661865234,77.240386962890620
7015,9,12515,Red Fort,28.653621673583984,77.236427307128900
7015,10,12727,Isbt,28.668561935424805,77.227951049804690
7015,11,12037,Ip College,28.680036544799805,77.223548889160160
7015,12,11005,Old Secretariat,28.684141159057617,77.222259521484380
7015,13,11597,Khyberpass,28.689781188964844,77.221405029296880
7015,14,11350,Old Chandrawal,28.694469451904297,77.222831726074220
7015,15,12126,Majnu Ka Tila,28.697660446166992,77.227424621582030
7015,16,12113,Wazirabad Bridge,28.711273193359375,77.227630615234380
7015,17,12114,Nanaksar,28.708822250366210,77.241561889648440
7015,18,11539,Khajuri,28.705270767211914,77.253776550292970
7015,19,12247,Bhajanpura,28.703397750854492,77.264022827148440
7015,20,12752,Yamuna Vihar Block C 1,28.702529907226562,77.274009704589840
7015,21,11039,Yamuna Vihar Block C 4,28.700695037841797,77.283569335937500
7016,1,12564,Inderpuri Jj Colony,28.637613296508790,77.145606994628900
7016,2,12083,Loha Mandi,28.639650344848633,77.144004821777340
7016,3,11046,Naraina Depot,28.648904800415040,77.151199340820310
7016,4,11025,Shadipur Depot,28.653007507324220,77.155685424804690
7016,5,12055,Patel Nagar West,28.647535324096680,77.165222167968750
7016,6,11024,Patel Nagar East,28.642364501953125,77.173759460449220
7016,7,11741,Shankar Road,28.638833999633790,77.179252624511720
7016,8,11300,Ridge Road Crossing,28.633331298828125,77.189201354980470
7016,9,12236,Rml Hospital,28.624507904052734,77.201179504394530
7016,10,12742,Kendriya Terminal,28.617433547973633,77.204261779785160
7016,11,11041,Akashwani Bhawan Ndpo,28.620754241943360,77.212631225585940
7016,12,11757,Krishi Bhawan,28.616844177246094,77.213714599609380
7016,13,11292,Vigyan Bhawan,28.610101699829100,77.221725463867190
7016,14,12255,Shahjahan Road,28.607065200805664,77.226936340332030
7016,15,12256,Sujan Singh Park,28.600975036621094,77.229408264160160
7016,16,12119,Rabindra Nagar,28.598426818847656,77.225173950195310
7016,17,11386,Lodhi Colony Corner,28.590499877929688,77.223739624023440
7016,18,11789,Lodhi Colony,28.585901260375977,77.221176147460940
7016,19,11550,Defence Colony,28.572002410888672,77.227615356445310
7016,20,12259,Andrews Ganj,28.565849304199220,77.230087280273440
7016,21,12760,Mckr Hospital,28.565256118774414,77.236030578613280
7016,22,12761,Lajpat Nagar,28.564973831176758,77.242500305175780
7016,23,11080,Garhi Crossing,28.562364578247070,77.250579833984380
7016,24,11756,Snp Depot,28.560657501220703,77.260704040527340
7016,25,12251,Modi Mills,28.555557250976562,77.265121459960940
7016,26,12069,Kalkaji Mandir,28.548414230346680,77.262420654296880
7016,27,12523,Kalkaji Depot,28.538253784179688,77.266967773437500
7016,28,11824,Okhla Phase 1,28.520439147949220,77.277603149414060
7016,29,11759,Hindustan Steel,28.526546478271484,77.272674560546880
7017,1,11036,Anand Vihar Isbt,28.646951675415040,77.316032409667970
7017,2,11533,Ram Prashna Crossing,28.660816192626953,77.320167541503900
7017,3,12618,Yojna Vihar,28.659557342529297,77.315498352050780
7017,4,11387,Anand Vihar,28.655176162719727,77.310478210449220
7017,5,12059,Hargobind Enclave,28.645915985107422,77.300910949707030
7017,6,11033,Kk Crossing,28.644330978393555,77.298637390136720
7017,7,12266,Swasthya Vihar,28.639425277709960,77.292373657226560
7017,8,12267,Shakarpur,28.633625030517578,77.282386779785160
7017,9,12792,Shakarpur School Block,28.627044677734375,77.279418945312500
7017,10,12123,Mother Dairy,28.618696212768555,77.286758422851560
7017,11,11581,Samaspur Jahangir Village,28.615072250366210,77.284667968750000
7017,12,11071,Pushta Crossing,28.612668991088867,77.283638000488280
7017,13,11816,Cpwd Office,28.603881835937500,77.269119262695310
7017,14,12603,Baba Bishamber Dass Ashram,28.600315093994140,77.261352539062500
7017,15,11817,Bridge Road,28.597488403320312,77.255813598632810
7017,16,11364,Sarai Kale Khan Isbt,28.589029312133790,77.258949279785160
7017,17,12171,Bala Sahib Gurudwara,28.581493377685547,77.266326904296880
7017,18,11781,Maharani Bagh,28.574829101562500,77.261940002441400
7017,19,11570,Bharat Nagar,28.567222595214844,77.269584655761720
7017,20,12619,Holy Family Corner,28.561174392700195,77.272651672363280
7017,21,12765,Ishwar Nagar,28.561449050903320,77.266387939453120
7017,22,12081,Svd,28.554502487182617,77.271743774414060
7017,23,12262,Okhla Tank,28.548051834106445,77.276481628417970
7017,24,11297,Sarita Vihar,28.532184600830078,77.286834716796880
7017,25,12532,Madanpur Khadar Crossing,28.527620315551758,77.289672851562500
7017,26,12294,Ali Crossing,28.514944076538086,77.296897888183600
7017,27,11077,Badarpur Mb Road,28.502019882202150,77.300270080566400
7018,1,11113,Safdarjung Terminal,28.579696655273438,77.213371276855470
7018,2,12528,Ina,28.575256347656250,77.209350585937500
7018,3,12529,Aiims,28.569118499755860,77.207954406738280
7018,4,12530,South Extension,28.568813323974610,77.220565795898440
7018,5,12259,Andrews Ganj,28.565849304199220,77.230087280273440
7018,6,11287,Central School,28.563095092773438,77.233047485351560
7018,7,12754,Lsr College,28.559001922607422,77.236999511718750
7018,8,11541,Kailash Colony,28.555294036865234,77.242164611816400
7018,9,12068,Paras Cinema,28.547700881958008,77.254096984863280
7018,10,11580,Nehru Place Terminal,28.547422409057617,77.254470825195310
7018,11,12069,Kalkaji Mandir,28.548414230346680,77.262420654296880
7018,12,12251,Modi Mills,28.555557250976562,77.265121459960940
7018,13,12081,Svd,28.554502487182617,77.271743774414060
7018,14,12262,Okhla Tank,28.548051834106445,77.276481628417970
7018,15,11297,Sarita Vihar,28.532184600830078,77.286834716796880
7018,16,12532,Madanpur Khadar Crossing,28.527620315551758,77.289672851562500
7018,17,12294,Ali Crossing,28.514944076538086,77.296897888183600
7018,18,12295,Badarpur,28.501802444458008,77.299972534179690
7018,19,12815,Jaitpur Crossing,28.497476577758790,77.302421569824220
7018,20,12818,Mithapur Chowk,28.500509262084960,77.316146850585940
7019,1,11113,Safdarjung Terminal,28.579696655273438,77.213371276855470
7019,2,12298,Sj Hospital,28.569580078125000,77.204544067382810
7019,3,12122,Nauroji Nagar,28.569412231445312,77.195411682128900
7019,4,11338,Rk Puram Sector 1,28.561647415161133,77.180877685546880
7019,5,11929,Sm Temple,28.566930770874023,77.165573120117190
7019,6,12280,Aps Colony,28.574100494384766,77.141525268554690
7019,7,12846,Mahipalpur Crossing,28.543983459472656,77.114807128906250
7019,8,12622,Nangal Dairy,28.552900314331055,77.101760864257810
7019,9,11601,Cargo,28.556631088256836,77.093437194824220
7019,10,11829,Igi Airport,28.556348800659180,77.085647583007810
7019,11,11907,Shahbad Mohammad Pur,28.554201126098633,77.068115234375000
7019,12,11811,Dwarka Spg Complex Gate No 2,28.568523406982422,77.067901611328120
7019,13,11388,Rs Satsang Sector 19,28.575551986694336,77.056632995605470
7019,14,12847,Dwarka Sector 19 Pocket 2,28.577745437622070,77.045104980468750
7020,1,11345,Mangalpuri,28.586923599243164,77.086585998535160
7020,2,12624,Dwarka Crossing,28.593095779418945,77.079528808593750
7020,3,11367,Dashrathpuri,28.603418350219727,77.082794189453120
7020,4,11566,Dabri Crossing,28.613477706909180,77.087524414062500
7020,5,12283,Janakpuri Block C 1,28.616907119750977,77.078887939453120
7020,6,12284,Tilak Pul,28.621543884277344,77.070007324218750
7020,7,12548,Uttam Nagar,28.624897003173828,77.065589904785160
7020,8,11252,Vikaspuri Crossing,28.626575469970703,77.070297241210940
7020,9,11506,Janakpuri District Centre,28.630233764648438,77.079315185546880
7020,10,11603,Krishna Park,28.639488220214844,77.081893920898440
7020,11,11723,Major Bhupender Singh Nagar,28.647172927856445,77.084854125976560
7020,12,11246,Kp Depot,28.653413772583008,77.087944030761720
7020,13,12492,Sunder Vihar,28.662811279296875,77.091896057128900
7020,14,11247,Paschim Vihar Power House,28.669107437133790,77.093414306640620
7020,15,11248,Peeragarhi Depot,28.675678253173828,77.093818664550780
7020,16,12033,Peeragarhi Chowk,28.679052352905273,77.096260070800780
7020,17,12217,Mangolpuri Block B,28.689556121826172,77.096603393554690
7020,18,11784,Mangolpur Khurd,28.696817398071290,77.099014282226560
7020,19,12786,Avantika Crossing,28.698642730712890,77.096786499023440
7020,20,11107,Budh Vihar,28.704067230224610,77.087280273437500
7020,21,12827,Pooth Kalan,28.714176177978516,77.077026367187500
7020,22,11913,Begampur,28.722291946411133,77.064636230468750
7020,23,11370,Karala Pathshala,28.726572036743164,77.052772521972660
7020,24,12594,Rama Vihar,28.728788375854492,77.045257568359380
7020,25,12809,Karala,28.731550216674805,77.031867980957030
7020,26,12271,Karala Desu Office,28.732805252075195,77.027832031250000
7020,27,11081,Kanjawala,28.737665176391600,77.007682800292970
7020,28,11767,Nirmal Hospital,28.738340377807617,77.003677368164060
7020,29,12858,Ladpur,28.739545822143555,76.997512817382810
7020,30,12085,Jonti Crossing,28.745990753173828,76.978401184082030
7020,31,12859,Jonti Shivalaya,28.751594543457030,76.974708557128900
7021,1,11332,Bmd Chowk,28.662500381469727,77.233901977539060
7021,2,12515,Red Fort,28.653621673583984,77.236427307128900
7021,3,12062,Daryaganj,28.643184661865234,77.240386962890620
7021,4,11277,Delhi Gate,28.640836715698242,77.240997314453120
7021,5,12546,Rajghat,28.641489028930664,77.246803283691400
7021,6,12816,Ito Ring Road,28.626855850219727,77.246971130371100
7021,7,12768,Delhi Secretariat,28.627910614013672,77.252380371093750
7021,8,11045,Rainywell,28.628261566162110,77.260902404785160
7021,9,12268,Tt Post,28.628004074096680,77.266441345214840
7021,10,12792,Shakarpur School Block,28.627044677734375,77.279418945312500
7021,11,12123,Mother Dairy,28.618696212768555,77.286758422851560
7021,12,11135,Trilokpuri Police Station,28.612691879272460,77.306694030761720
7021,13,11611,Trilokpuri Block 13,28.612672805786133,77.308410644531250
7021,14,11612,Chand Cinema,28.612783432006836,77.311614990234380
7021,15,12787,Kalyanpuri,28.617378234863280,77.317230224609380
7021,16,12243,Kondli,28.612941741943360,77.322959899902340
7021,17,11613,New Kondli Phase A 1,28.602838516235350,77.329284667968750
7021,18,12854,Gharoli Dairy Farm,28.612646102905273,77.331008911132810
7021,19,11838,Gharoli Village,28.620889663696290,77.335586547851560
7021,20,11329,Mayur Vihar Phase 2,28.620172500610350,77.304763793945310
7022,1,12057,Mori Gate Terminal,28.666227340698242,77.222167968750000
7022,2,12279,Isbt Ring Road,28.669170379638672,77.232391357421880
7022,3,11079,Yamuna Bazaar,28.664800643920900,77.235488891601560
7022,4,11316,Vijay Ghat,28.657703399658203,77.245018005371100
7022,5,11055,Shanti Van,28.649652481079100,77.245399475097660
7022,6,12546,Rajghat,28.641489028930664,77.246803283691400
7022,7,11277,Delhi Gate,28.640836715698242,77.240997314453120
7022,8,12248,Ito,28.627901077270508,77.244697570800780
7022,9,12520,Supreme Court,28.621709823608400,77.237632751464840
7022,10,11125,Patiala House,28.616685867309570,77.234123229980470
7022,11,12255,Shahjahan Road,28.607065200805664,77.226936340332030
7022,12,11138,Kashmir Emporium,28.601387023925780,77.222297668457030
7022,13,12634,Prithviraj Road,28.597034454345703,77.218116760253900
7022,14,12076,Sj Madrasa,28.588256835937500,77.212974548339840
7022,15,12077,Sj Airport,28.584251403808594,77.212532043457030
7022,16,12528,Ina,28.575256347656250,77.209350585937500
7022,17,12298,Sj Hospital,28.569580078125000,77.204544067382810
7022,18,12166,Green Park,28.557603836059570,77.206649780273440
7022,19,12167,Iit Gate,28.545883178710938,77.201896667480470
7022,20,12168,Panchsheel Club,28.546094894409180,77.209068298339840
7022,21,11398,Malviya Nagar Corner,28.539031982421875,77.212066650390620
7022,22,12635,Malviya Nagar Block F,28.535327911376953,77.208229064941400
7023,1,12065,Mori Gate,28.666271209716797,77.225006103515620
7023,2,12727,Isbt,28.668561935424805,77.227951049804690
7023,3,12515,Red Fort,28.653621673583984,77.236427307128900
7023,4,12062,Daryaganj,28.643184661865234,77.240386962890620
7023,5,11277,Delhi Gate,28.640836715698242,77.240997314453120
7023,6,12546,Rajghat,28.641489028930664,77.246803283691400
7023,7,12816,Ito Ring Road,28.626855850219727,77.246971130371100
7023,8,12768,Delhi Secretariat,28.627910614013672,77.252380371093750
7023,9,11045,Rainywell,28.628261566162110,77.260902404785160
7023,10,12268,Tt Post,28.628004074096680,77.266441345214840
7023,11,12792,Shakarpur School Block,28.627044677734375,77.279418945312500
7023,12,12123,Mother Dairy,28.618696212768555,77.286758422851560
7023,13,11135,Trilokpuri Police Station,28.612691879272460,77.306694030761720
7023,14,11622,Trilokpuri Block B,28.612646102905273,77.306289672851560
7023,15,11612,Chand Cinema,28.612783432006836,77.311614990234380
7023,16,12787,Kalyanpuri,28.617378234863280,77.317230224609380
7023,17,12631,Kondli Crossing,28.613000869750977,77.322914123535160
7023,18,11747,Dallu Pura,28.608812332153320,77.319984436035160
7023,19,12648,Somerville School,28.604835510253906,77.323066711425780
7023,20,11748,Mayur Vihar Phase 3 Crossing,28.601528167724610,77.327247619628900
7023,21,11419,New Kondli,28.602931976318360,77.329460144042970
7023,22,11394,Mayur Vihar Phase 3,28.608533859252930,77.337333679199220
7024,1,12808,Inderlok Metro Station,28.673662185668945,77.168899536132810
7024,2,12315,Zakhira,28.667617797851562,77.164146423339840
7024,3,12812,Swatantra Bharat Mills,28.666284561157227,77.162727355957030
7024,4,12149,Moti Nagar,28.658462524414062,77.146659851074220
7024,5,12850,Kirti Nagar Block F,28.651380538940430,77.140800476074220
7024,6,12372,Kirti Nagar Police Station,28.649564743041992,77.143669128417970
7024,7,12851,Mansrovar Garden,28.638139724731445,77.132423400878900
7024,8,11780,Mayapuri Depot,28.636665344238280,77.128707885742190
7024,9,11019,Metal Forging,28.630645751953125,77.124267578125000
7024,10,12044,Zinc Market,28.617998123168945,77.112121582031250
7024,11,11559,Lajwanti Garden,28.614349365234375,77.106918334960940
7024,12,12276,Janakpuri Block D,28.608184814453125,77.103652954101560
7024,13,12277,Desu Colony,28.609786987304688,77.094848632812500
7024,14,11417,Dabri Modh,28.608354568481445,77.082366943359380
7024,15,11367,Dashrathpuri,28.603418350219727,77.082794189453120
7024,16,11798,Dwarka Gate,28.592769622802734,77.079360961914060
7024,17,11921,Jm International School,28.595687866210938,77.068191528320310
7024,18,11117,Madhu Vihar,28.599763870239258,77.061164855957030
7025,1,11374,Minto Road Terminal,28.639471054077150,77.223632812500000
7025,2,11276,Super Bazaar Marina,28.636198043823242,77.218376159667970
7025,3,11762,Regal Cinema,28.630662918090820,77.217300415039060
7025,4,12054,Patel Chowk,28.622180938720703,77.214759826660160
7025,5,11757,Krishi Bhawan,28.616844177246094,77.213714599609380
7025,6,12075,Sunehari Masjid Block G,28.609672546386720,77.210098266601560
7025,7,11630,Krishanan Menon Marg,28.606597900390625,77.210182189941400
7025,8,12527,Tughlak Road Police Station,28.600152969360350,77.211357116699220
7025,9,12399,Race Course,28.597606658935547,77.211166381835940
7025,10,11418,Ashoka Hotel,28.594276428222656,77.196014404296880
7025,11,12872,Vinay Marg,28.587474822998047,77.194091796875000
7025,12,11640,Railway Museum,28.586820602416992,77.185249328613280
7025,13,11086,Moti Bagh,28.579822540283203,77.178657531738280
7025,14,11100,Rk Puram Sector 8,28.569692611694336,77.165527343750000
7025,15,11950,Basant Village,28.571481704711914,77.157821655273440
7025,16,11365,Arjun Path,28.574403762817383,77.150230407714840
7025,17,12280,Aps Colony,28.574100494384766,77.141525268554690
7025,18,12135,Palam Domestic Airport,28.567600250244140,77.128089904785160
7025,19,12134,Hanuman Mandir,28.572620391845703,77.121040344238280
7025,20,12310,Palam Railway Crossing,28.582342147827150,77.091163635253900
7025,21,11891,Palam Colony,28.584325790405273,77.090667724609380
7025,22,12311,Palam Village,28.588893890380860,77.080757141113280
7026,1,11519,Shivaji Stadium,28.632993698120117,77.216018676757810
7026,2,11276,Super Bazaar Marina,28.636198043823242,77.218376159667970
7026,3,11943,Government Press,28.636373519897460,77.225234985351560
7026,4,11153,Ddu Marg,28.633844375610350,77.229461669921880
7026,5,11424,Kothi No 26,28.633491516113280,77.232742309570310
7026,6,11407,Mata Sundri College,28.634355545043945,77.233955383300780
7026,7,11624,Bal Bhawan,28.629322052001953,77.237701416015620
7026,8,12769,Ito Agcr,28.627954483032227,77.244438171386720
7026,9,12768,Delhi Secretariat,28.627910614013672,77.252380371093750
7026,10,11045,Rainywell,28.628261566162110,77.260902404785160
7026,11,12268,Tt Post,28.628004074096680,77.266441345214840
7026,12,12267,Shakarpur,28.633625030517578,77.282386779785160
7026,13,12266,Swasthya Vihar,28.639425277709960,77.292373657226560
7026,14,11033,Kk Crossing,28.644330978393555,77.298637390136720
7026,15,12242,Jagatpuri Block A,28.651857376098633,77.293052673339840
7026,16,12512,Hans Apartment,28.657989501953125,77.289962768554690
7026,17,12511,Swaran Cinema,28.663631439208984,77.285636901855470
7026,18,12510,Kanti Nagar,28.670505523681640,77.280860900878900
7026,19,12241,Welcome,28.671798706054688,77.277565002441400
7026,20,12746,Seelampur,28.673505783081055,77.270202636718750
7026,21,11861,Jafrabad School,28.683456420898438,77.275215148925780
7026,22,11527,Babarpur,28.689939498901367,77.281799316406250
7026,23,11786,Jyoti Colony,28.688930511474610,77.291229248046880
7026,24,11751,Nathu Colony,28.689489364624023,77.298583984375000
7026,25,11281,Nand Nagri Terminal,28.691287994384766,77.310424804687500
7026,26,12552,Gagan Cinema,28.697505950927734,77.314605712890620
7026,27,12406,Nand Nagri Extension,28.698778152465820,77.307647705078120
7027,1,12249,Nizamuddin Railway Station,28.586725234985350,77.252876281738280
7027,2,12250,Bhgoal,28.581989288330078,77.251724243164060
7027,3,11755,Ashram,28.571836471557617,77.258979797363280
7027,4,11542,Nehru Nagar,28.568733215332030,77.253913879394530
7027,5,12761,Lajpat Nagar,28.564973831176758,77.242500305175780
7027,6,12760,Mckr Hospital,28.565256118774414,77.236030578613280
7027,7,12259,Andrews Ganj,28.565849304199220,77.230087280273440
7027,8,12530,South Extension,28.568813323974610,77.220565795898440
7027,9,12529,Aiims,28.569118499755860,77.207954406738280
7027,10,12298,Sj Hospital,28.569580078125000,77.204544067382810
7027,11,12122,Nauroji Nagar,28.569412231445312,77.195411682128900
7027,12,11628,Rk Puram Modh,28.570959091186523,77.182083129882810
7027,13,12121,Moti Bagh 1,28.579645156860350,77.178436279296880
7027,14,11579,Nanakpura,28.584804534912110,77.172271728515620
7027,15,11312,Dhaula Kuan,28.592948913574220,77.163566589355470
7027,16,12544,Golf Club,28.592908859252930,77.158355712890620
7027,17,11773,Rr Line,28.595876693725586,77.150886535644530
7027,18,11085,Mall Road Delhi Cantt,28.596582412719727,77.140853881835940
7027,19,12565,Shastri Bazaar,28.596502304077150,77.135887145996100
7027,20,11314,Palam Tanky,28.585180282592773,77.126289367675780
7027,21,12095,Palam Modh,28.580583572387695,77.124137878417970
7027,22,11315,More Lines,28.582996368408203,77.116546630859380
7027,23,12096,Sadar Bazaar,28.594964981079100,77.122734069824220
7027,24,12278,Sadar Bazaar Police Station,28.599864959716797,77.124900817871100
7027,25,12092,Kirby Place,28.605155944824220,77.126853942871100
7027,26,12545,Janak Setu,28.607530593872070,77.121063232421880
7027,27,11559,Lajwanti Garden,28.614349365234375,77.106918334960940
7027,28,12867,Hari Nagar Depot,28.623907089233400,77.101951599121100
7027,29,11156,Hari Nagar Block G,28.627767562866210,77.100280761718750
7027,30,11008,Tilak Nagar,28.636688232421875,77.096191406250000
7027,31,12497,Nangli Jalib,28.632186889648438,77.084197998046880
7027,32,11506,Janakpuri District Centre,28.630233764648438,77.079315185546880
7027,33,12879,Vikaspuri Modh,28.626874923706055,77.070549011230470
7027,34,12548,Uttam Nagar,28.624897003173828,77.065589904785160
7028,1,11538,Railway Station,28.660074234008790,77.231613159179690
7028,2,12515,Red Fort,28.653621673583984,77.236427307128900
7028,3,12062,Daryaganj,28.643184661865234,77.240386962890620
7028,4,11277,Delhi Gate,28.640836715698242,77.240997314453120
7028,5,12061,Turkman Gate,28.641979217529297,77.232528686523440
7028,6,11787,Ajmeri Gate,28.646272659301758,77.223861694335940
7028,7,11067,Pahar Ganj Police Station,28.646137237548828,77.208290100097660
7028,8,12098,Meghdoot Bhawan,28.644142150878906,77.200683593750000
7028,9,12653,Rabindra Rangshala,28.638509750366210,77.193580627441400
7028,10,11300,Ridge Road Crossing,28.633331298828125,77.189201354980470
7028,11,12414,Rajinder Nagar Block Crossing R,28.623819351196290,77.180664062500000
7028,12,12415,Buddha Jayanti Park,28.616830825805664,77.176071166992190
7028,13,11158,Bolivar Marg,28.609296798706055,77.172721862792970
7028,14,11312,Dhaula Kuan,28.592948913574220,77.163566589355470
7028,15,11911,Pratap Chowk,28.592821121215820,77.152832031250000
7028,16,11866,Air Force Headquarter,28.581676483154297,77.148948669433600
7028,17,11961,Army Public School Delhi Cantonment,28.574930191040040,77.141242980957030
7028,18,12873,Police Post,28.561681747436523,77.133712768554690
7028,19,11317,Mahipalpur Extension,28.547302246093750,77.124420166015620
7028,20,12224,Mahipalpur,28.542459487915040,77.118133544921880
7028,21,11011,Rangpuri,28.536430358886720,77.113418579101560
7028,22,11738,Shivmurti,28.534721374511720,77.110084533691400
7028,23,11908,Orchid Hotel,28.536163330078125,77.102394104003900
7028,24,11867,Samalkha Modh,28.535501480102540,77.091178894042970
7028,25,12339,Samalkha,28.531204223632812,77.088371276855470
7028,26,11962,Kapeshera Modh,28.529293060302734,77.087051391601560
7028,27,12735,Kapashera Village,28.525342941284180,77.084342956542970
7028,28,11012,Bijwasan School,28.533372879028320,77.059852600097660
7028,29,12500,Bijwasan Syndicate Bank,28.533863067626953,77.058433532714840
7028,30,11366,Bijwasan Railway Crossing,28.534381866455078,77.048118591308600
7028,31,12593,Portary Farm,28.537994384765625,77.036643981933600
7028,32,12821,Bamnoli,28.540670394897460,77.024063110351560
7028,33,11260,Bamnoli Power House,28.541877746582030,77.018707275390620
7028,34,11013,Chhawla Campus,28.547664642333984,77.009353637695310
7028,35,12229,Chhawla Village,28.556900024414062,77.005081176757810
7028,36,11014,Chhawla School,28.566301345825195,77.000480651855470
7028,37,12501,Rewla Khanpur Tajpur Modh,28.577459335327150,76.996604919433600
7028,38,11509,Jhatikra Crossing,28.585294723510742,76.995223999023440
7028,39,12413,Dinpur,28.591041564941406,76.993270874023440
7028,40,11009,Roshanpura,28.603910446166992,76.987411499023440
7028,41,12498,Najafgarh Police Station Chhawla Stand,28.608919143676758,76.985328674316400
7028,42,11015,Najafgarh Terminal,28.614976882934570,76.976936340332030
7029,1,12727,Isbt,28.668561935424805,77.227951049804690
7029,2,11576,Tis Hazari Court,28.666715621948242,77.219253540039060
7029,3,11740,Ice Factory,28.667798995971680,77.209869384765620
7029,4,12550,Filmistan,28.658660888671875,77.202987670898440
7029,5,11090,Ggs Marg,28.655347824096680,77.198997497558600
7029,6,11058,Karol Bagh Faiz Road,28.648929595947266,77.199356079101560
7029,7,12653,Rabindra Rangshala,28.638509750366210,77.193580627441400
7029,8,11300,Ridge Road Crossing,28.633331298828125,77.189201354980470
7029,9,12414,Rajinder Nagar Block Crossing R,28.623819351196290,77.180664062500000
7029,10,12415,Buddha Jayanti Park,28.616830825805664,77.176071166992190
7029,11,11158,Bolivar Marg,28.609296798706055,77.172721862792970
7029,12,11312,Dhaula Kuan,28.592948913574220,77.163566589355470
7029,13,11911,Pratap Chowk,28.592821121215820,77.152832031250000
7029,14,11866,Air Force Headquarter,28.581676483154297,77.148948669433600
7029,15,11961,Army Public School Delhi Cantonment,28.574930191040040,77.141242980957030
7029,16,12873,Police Post,28.561681747436523,77.133712768554690
7029,17,11317,Mahipalpur Extension,28.547302246093750,77.124420166015620
7029,18,12224,Mahipalpur,28.542459487915040,77.118133544921880
7029,19,11011,Rangpuri,28.536430358886720,77.113418579101560
7029,20,11738,Shivmurti,28.534721374511720,77.110084533691400
7029,21,11908,Orchid Hotel,28.536163330078125,77.102394104003900
7029,22,11867,Samalkha Modh,28.535501480102540,77.091178894042970
7029,23,12339,Samalkha,28.531204223632812,77.088371276855470
7029,24,11962,Kapeshera Modh,28.529293060302734,77.087051391601560
7029,25,12735,Kapashera Village,28.525342941284180,77.084342956542970
7029,26,11012,Bijwasan School,28.533372879028320,77.059852600097660
7029,27,12500,Bijwasan Syndicate Bank,28.533863067626953,77.058433532714840
7029,28,11366,Bijwasan Railway Crossing,28.534381866455078,77.048118591308600
7029,29,11427,Bharthal Village,28.540119171142578,77.050994873046880
7030,1,11518,Fatehpuri,28.656368255615234,77.221473693847660
7030,2,12233,Mori Gate Isbt,28.666307449340820,77.225006103515620
7030,3,11269,New Court,28.666566848754883,77.219360351562500
7030,4,11740,Ice Factory,28.667798995971680,77.209869384765620
7030,5,12741,Roshanara Bagh,28.671819686889650,77.200904846191400
7030,6,12505,Clock Tower,28.673240661621094,77.201873779296880
7030,7,11120,Gurudwara Mandi,28.684753417968750,77.196166992187500
7030,8,12606,Rp Bagh,28.687662124633790,77.193824768066400
7030,9,11381,Bara Bagh,28.701232910156250,77.183120727539060
7030,10,12039,Azadpur,28.708120346069336,77.177749633789060
7030,11,11324,Shalimar Bagh Crossing,28.703386306762695,77.168998718261720
7030,12,11161,Shalimar Bagh Block A E,28.710956573486328,77.152221679687500
7030,13,11868,Shalimar Bagh Centre C C,28.713718414306640,77.151306152343750
7030,14,11644,Shalimar Bagh Block B H,28.715135574340820,77.157089233398440
7030,15,11869,Haidarpur Dispensary,28.722610473632812,77.151916503906250
7030,16,11162,Haidarpur,28.723960876464844,77.147285461425780
7031,1,11518,Fatehpuri,28.656368255615234,77.221473693847660
7031,2,12233,Mori Gate Isbt,28.666307449340820,77.225006103515620
7031,3,11269,New Court,28.666566848754883,77.219360351562500
7031,4,11740,Ice Factory,28.667798995971680,77.209869384765620
7031,5,12741,Roshanara Bagh,28.671819686889650,77.200904846191400
7031,6,12505,Clock Tower,28.673240661621094,77.201873779296880
7031,7,11120,Gurudwara Mandi,28.684753417968750,77.196166992187500
7031,8,12606,Rp Bagh,28.687662124633790,77.193824768066400
7031,9,11381,Bara Bagh,28.701232910156250,77.183120727539060
7031,10,12039,Azadpur,28.708120346069336,77.177749633789060
7031,11,12495,Adarsh Nagar,28.716297149658203,77.170440673828120
7031,12,12504,Jahangirpuri Gt Road,28.724664688110350,77.163574218750000
7031,13,12496,Gtk Depot,28.731166839599610,77.158653259277340
7031,14,11505,Gtk Bypass,28.734912872314453,77.155960083007810
7031,15,11253,Libaspur,28.752302169799805,77.149482727050780
7031,16,11267,Gurudwara,28.764915466308594,77.145874023437500
7031,17,11728,Nangli Poona,28.769561767578125,77.144355773925780
7031,18,11729,Budhpur,28.781589508056640,77.141197204589840
7031,19,11268,Alipur,28.796644210815430,77.139533996582030
7031,20,12740,Palla Crossing,28.802942276000977,77.142623901367190
7031,21,12885,Bakhtawarpur School,28.825731277465820,77.174270629882810
7031,22,11965,Bakhtawarpur Village,28.829359054565430,77.178688049316400
7031,23,12417,Akbarpur Majra Crossing,28.832702636718750,77.179077148437500
7031,24,12656,Akbarpur Village,28.834508895874023,77.182380676269530
7031,25,11870,Jhangola Village,28.830881118774414,77.199722290039060
7032,1,12742,Kendriya Terminal,28.617433547973633,77.204261779785160
7032,2,12235,Ndpo,28.626352310180664,77.205436706542970
7032,3,11283,Patel Chowk Palika Kendra,28.628593444824220,77.216880798339840
7032,4,12074,Jantar Mantar,28.627784729003906,77.216285705566400
7032,5,11313,Tolstoy Marg,28.626220703125000,77.220375061035160
7032,6,12770,Mandi House,28.625720977783203,77.234222412109380
7032,7,12248,Ito,28.627901077270508,77.244697570800780
7032,8,12768,Delhi Secretariat,28.627910614013672,77.252380371093750
7032,9,11045,Rainywell,28.628261566162110,77.260902404785160
7032,10,12268,Tt Post,28.628004074096680,77.266441345214840
7032,11,12267,Shakarpur,28.633625030517578,77.282386779785160
7032,12,12266,Swasthya Vihar,28.639425277709960,77.292373657226560
7032,13,11033,Kk Crossing,28.644330978393555,77.298637390136720
7032,14,12242,Jagatpuri Block A,28.651857376098633,77.293052673339840
7032,15,12826,Shahdara Court,28.653598785400390,77.296325683593750
7032,16,11530,Surajmal Park,28.663690567016600,77.303619384765620
7032,17,11531,Jhilmil Dda Flats,28.666627883911133,77.306640625000000
7032,18,11369,Iti Vivek Vihar,28.670543670654297,77.315597534179690
7032,19,11532,Surya Nagar,28.667003631591797,77.321670532226560
7032,20,11752,Shahdara Border,28.676195144653320,77.321792602539060
7032,21,11873,Seemapuri,28.680959701538086,77.328269958496100
7032,22,11537,New Seemapuri,28.684951782226562,77.331359863281250
7033,1,11580,Nehru Place Terminal,28.547422409057617,77.254470825195310
7033,2,12068,Paras Cinema,28.547700881958008,77.254096984863280
7033,3,11541,Kailash Colony,28.555294036865234,77.242164611816400
7033,4,12754,Lsr College,28.559001922607422,77.236999511718750
7033,5,11287,Central School,28.563095092773438,77.233047485351560
7033,6,12259,Andrews Ganj,28.565849304199220,77.230087280273440
7033,7,12530,South Extension,28.568813323974610,77.220565795898440
7033,8,12529,Aiims,28.569118499755860,77.207954406738280
7033,9,12298,Sj Hospital,28.569580078125000,77.204544067382810
7033,10,12122,Nauroji Nagar,28.569412231445312,77.195411682128900
7033,11,11337,Rk Puram Corner,28.569921493530273,77.184402465820310
7033,12,11086,Moti Bagh,28.579822540283203,77.178657531738280
7033,13,11579,Nanakpura,28.584804534912110,77.172271728515620
7033,14,11312,Dhaula Kuan,28.592948913574220,77.163566589355470
7033,15,11773,Rr Line,28.595876693725586,77.150886535644530
7033,16,12297,Garison Engineering,28.605350494384766,77.147453308105470
7033,17,12120,Barar Square,28.608760833740234,77.140037536621100
7033,18,12791,Naraina Village,28.619735717773438,77.136619567871100
7033,19,11552,Naraina Vihar,28.626178741455078,77.134490966796880
7033,20,12790,Mayapuri Crossing,28.638486862182617,77.129432678222660
7033,21,11336,Rajouri Garden,28.646005630493164,77.126640319824220
7033,22,11739,Raja Garden,28.654352188110350,77.124717712402340
7033,23,11903,Tagore Garden,28.643671035766600,77.112739562988280
7033,24,11948,Raghubir Nagar Subzi Mandi,28.652769088745117,77.111335754394530
7033,25,11434,Raghubir Nagar Block N,28.659313201904297,77.112274169921880
7034,1,11008,Tilak Nagar,28.636688232421875,77.096191406250000
7034,2,11156,Hari Nagar Block G,28.627767562866210,77.100280761718750
7034,3,12867,Hari Nagar Depot,28.623907089233400,77.101951599121100
7034,4,11018,Hari Nagar Clock Tower,28.624692916870117,77.110389709472660
7034,5,12044,Zinc Market,28.617998123168945,77.112121582031250
7034,6,11019,Metal Forging,28.630645751953125,77.124267578125000
7034,7,11514,Mayapuri Chowk,28.638486862182617,77.129432678222660
7034,8,11263,Rajouri Garden Ring Road,28.643730163574220,77.127532958984380
7034,9,11739,Raja Garden,28.654352188110350,77.124717712402340
7034,10,11515,Punjabi Bagh Club,28.663633346557617,77.130737304687500
7034,11,11742,Punjabi Bagh Terminal,28.667741775512695,77.137405395507810
7034,12,11348,Shivaji Park,28.674852371215820,77.130935668945310
7034,13,11349,Madipur Village,28.675785064697266,77.123992919921880
7034,14,11893,Madipur Jj Colony,28.676357269287110,77.120330810546880
7034,15,11899,Ordinance Depot,28.677055358886720,77.114875793457030
7034,16,12661,Multan Nagar Jwalaheri Crossing,28.676977157592773,77.113624572753900
7034,17,11800,Peeragarhi,28.679586410522460,77.092880249023440
7034,18,12217,Mangolpuri Block B,28.689556121826172,77.096603393554690
7034,19,12577,Mangolpuri Block D,28.696313858032227,77.093254089355470
7034,20,11326,Mangolpuri Block S,28.692361831665040,77.081985473632810
7034,21,12317,Mangolpuri Block Q,28.687932968139650,77.082984924316400
7035,1,12808,Inderlok Metro Station,28.673662185668945,77.168899536132810
7035,2,12315,Zakhira,28.667617797851562,77.164146423339840
7035,3,12812,Swatantra Bharat Mills,28.666284561157227,77.162727355957030
7035,4,12149,Moti Nagar,28.658462524414062,77.146659851074220
7035,5,12802,Ramesh Nagar,28.652568817138672,77.131607055664060
7035,6,11739,Raja Garden,28.654352188110350,77.124717712402340
7035,7,11903,Tagore Garden,28.643671035766600,77.112739562988280
7035,8,12579,Mukherjee Park,28.642206192016600,77.099067687988280
7035,9,11008,Tilak Nagar,28.636688232421875,77.096191406250000
7035,10,12497,Nangli Jalib,28.632186889648438,77.084197998046880
7035,11,11506,Janakpuri District Centre,28.630233764648438,77.079315185546880
7035,12,11252,Vikaspuri Crossing,28.626575469970703,77.070297241210940
7035,13,11503,Uttam Nagar Terminal,28.625795364379883,77.065711975097660
7035,14,12729,Om Vihar,28.621206283569336,77.052665710449220
7035,15,12730,Nawada,28.620161056518555,77.045455932617190
7035,16,11507,Rama Park,28.619911193847656,77.036766052246100
7035,17,12040,Kakrola Bridge,28.619062423706055,77.029075622558600
7035,18,11508,Nangli Dairy,28.619665145874023,77.017601013183600
7035,19,11258,Nangli Sakrawati,28.615682601928710,77.005996704101560
7035,20,12732,Najafgarh,28.612461090087890,76.986381530761720
7035,21,11167,Najafgarh Nangloi Crossing,28.616340637207030,76.983444213867190
7035,22,11015,Najafgarh Terminal,28.614976882934570,76.976936340332030
7036,1,11036,Anand Vihar Isbt,28.646951675415040,77.316032409667970
7036,2,12170,Gazipur Depot,28.640794754028320,77.315658569335940
7036,3,11044,Hasanpur Depot,28.635795593261720,77.307395935058600
7036,4,11602,Chander Vihar,28.632843017578125,77.299194335937500
7036,5,11129,Balco Apartment,28.630111694335938,77.306724548339840
7036,6,11666,Saraswati Kunj,28.623691558837890,77.301162719726560
7036,7,12381,Manglam Hospital,28.621891021728516,77.295333862304690
7036,8,12123,Mother Dairy,28.618696212768555,77.286758422851560
7036,9,11071,Pushta Crossing,28.612668991088867,77.283638000488280
7036,10,11816,Cpwd Office,28.603881835937500,77.269119262695310
7036,11,12603,Baba Bishamber Dass Ashram,28.600315093994140,77.261352539062500
7036,12,12427,Bridge Road East,28.598731994628906,77.255584716796880
7036,13,11344,Sarai Kale Khan,28.588951110839844,77.258811950683600
7036,14,12171,Bala Sahib Gurudwara,28.581493377685547,77.266326904296880
7036,15,11781,Maharani Bagh,28.574829101562500,77.261940002441400
7036,16,11570,Bharat Nagar,28.567222595214844,77.269584655761720
7036,17,12431,Holy Family Crossing,28.561147689819336,77.272682189941400
7036,18,12251,Modi Mills,28.555557250976562,77.265121459960940
7036,19,12069,Kalkaji Mandir,28.548414230346680,77.262420654296880
7036,20,11580,Nehru Place Terminal,28.547422409057617,77.254470825195310
7036,21,12524,O S Communication,28.542570114135742,77.241516113281250
7036,22,11097,Masjid Moth,28.540630340576172,77.235916137695310
7036,23,12757,Chirag Delhi,28.540555953979492,77.232345581054690
7036,24,11667,Seikh Sarai Phase 2,28.535043716430664,77.229202270507810
7036,25,12432,Khirki Village,28.530096054077150,77.218299865722660
7036,26,11842,Saket Market Press Enclave,28.527870178222656,77.208351135253900
7036,27,11395,Geetanjali,28.529340744018555,77.201309204101560
7036,28,12581,Police Training School,28.532876968383790,77.195838928222660
7036,29,11734,Qutab,28.526382446289062,77.187347412109380
7036,30,12070,Mehrauli,28.522644042968750,77.182205200195310
7037,1,11387,Anand Vihar,28.655176162719727,77.310478210449220
7037,2,11980,Gazipur Depot Crossing,28.641206741333008,77.315917968750000
7037,3,11327,Gazipur Village,28.632055282592773,77.315986633300780
7037,4,11846,Vinod Nagar,28.624038696289062,77.309478759765620
7037,5,11581,Samaspur Jahangir Village,28.615072250366210,77.284667968750000
7037,6,11071,Pushta Crossing,28.612668991088867,77.283638000488280
7037,7,11816,Cpwd Office,28.603881835937500,77.269119262695310
7037,8,12603,Baba Bishamber Dass Ashram,28.600315093994140,77.261352539062500
7037,9,12427,Bridge Road East,28.598731994628906,77.255584716796880
7037,10,11364,Sarai Kale Khan Isbt,28.589029312133790,77.258949279785160
7037,11,12171,Bala Sahib Gurudwara,28.581493377685547,77.266326904296880
7037,12,11781,Maharani Bagh,28.574829101562500,77.261940002441400
7037,13,11755,Ashram,28.571836471557617,77.258979797363280
7037,14,11542,Nehru Nagar,28.568733215332030,77.253913879394530
7037,15,12761,Lajpat Nagar,28.564973831176758,77.242500305175780
7037,16,12760,Mckr Hospital,28.565256118774414,77.236030578613280
7037,17,12259,Andrews Ganj,28.565849304199220,77.230087280273440
7037,18,12530,South Extension,28.568813323974610,77.220565795898440
7037,19,12529,Aiims,28.569118499755860,77.207954406738280
7037,20,12528,Ina,28.575256347656250,77.209350585937500
7037,21,11113,Safdarjung Terminal,28.579696655273438,77.213371276855470
7038,1,11387,Anand Vihar,28.655176162719727,77.310478210449220
7038,2,11980,Gazipur Depot Crossing,28.641206741333008,77.315917968750000
7038,3,11327,Gazipur Village,28.632055282592773,77.315986633300780
7038,4,11846,Vinod Nagar,28.624038696289062,77.309478759765620
7038,5,11581,Samaspur Jahangir Village,28.615072250366210,77.284667968750000
7038,6,11071,Pushta Crossing,28.612668991088867,77.283638000488280
7038,7,11816,Cpwd Office,28.603881835937500,77.269119262695310
7038,8,12603,Baba Bishamber Dass Ashram,28.600315093994140,77.261352539062500
7038,9,12427,Bridge Road East,28.598731994628906,77.255584716796880
7038,10,11364,Sarai Kale Khan Isbt,28.589029312133790,77.258949279785160
7038,11,12171,Bala Sahib Gurudwara,28.581493377685547,77.266326904296880
7038,12,11781,Maharani Bagh,28.574829101562500,77.261940002441400
7038,13,11755,Ashram,28.571836471557617,77.258979797363280
7038,14,11542,Nehru Nagar,28.568733215332030,77.253913879394530
7038,15,12761,Lajpat Nagar,28.564973831176758,77.242500305175780
7038,16,12760,Mckr Hospital,28.565256118774414,77.236030578613280
7038,17,12754,Lsr College,28.559001922607422,77.236999511718750
7038,18,11541,Kailash Colony,28.555294036865234,77.242164611816400
7038,19,12901,Gk Part 1 Block S,28.554645538330078,77.228752136230470
7038,20,11295,Gk 1 M Block Market,28.549932479858400,77.233551025390620
7039,1,11008,Tilak Nagar,28.636688232421875,77.096191406250000
7039,2,12497,Nangli Jalib,28.632186889648438,77.084197998046880
7039,3,11506,Janakpuri District Centre,28.630233764648438,77.079315185546880
7039,4,11252,Vikaspuri Crossing,28.626575469970703,77.070297241210940
7039,5,11503,Uttam Nagar Terminal,28.625795364379883,77.065711975097660
7039,6,12729,Om Vihar,28.621206283569336,77.052665710449220
7039,7,12730,Nawada,28.620161056518555,77.045455932617190
7039,8,11507,Rama Park,28.619911193847656,77.036766052246100
7039,9,12040,Kakrola Bridge,28.619062423706055,77.029075622558600
7039,10,11508,Nangli Dairy,28.619665145874023,77.017601013183600
7039,11,11258,Nangli Sakrawati,28.615682601928710,77.005996704101560
7039,12,12732,Najafgarh,28.612461090087890,76.986381530761720
7039,13,11167,Najafgarh Nangloi Crossing,28.616340637207030,76.983444213867190
7039,14,11511,Ghumanhera Crossing,28.611143112182617,76.974990844726560
7039,15,12434,Nanak Piao,28.609285354614258,76.967002868652340
7039,16,12435,Indira Service Station,28.608278274536133,76.959495544433600
7039,17,11983,Mitraon,28.608392715454100,76.945381164550780
7039,18,11670,Mitraon School,28.606985092163086,76.939292907714840
7039,19,11447,Surehra Crossing,28.603946685791016,76.932075500488280
7039,20,12902,Rawat Crossing,28.600404739379883,76.915725708007810
7039,21,11884,M Dankaur Public School,28.597238540649414,76.899261474609380
7039,22,11885,Mundhela Crossing,28.597766876220703,76.895210266113280
7039,23,11448,Bakar Garh Crossing,28.591682434082030,76.886001586914060
7039,24,12662,Kadipur,28.578020095825195,76.879287719726560
7039,25,12903,Issapur Crossing,28.568849563598633,76.875190734863280
7039,26,11984,Issapur School,28.572536468505860,76.870536804199220
7039,27,12667,Issapur Temple,28.577096939086914,76.863555908203120
7040,1,11787,Ajmeri Gate,28.646272659301758,77.223861694335940
7040,2,11067,Pahar Ganj Police Station,28.646137237548828,77.208290100097660
7040,3,11573,Karol Bagh Terminal,28.648414611816406,77.200660705566400
7040,4,11057,Desh Bandhu Gupta Market,28.651800155639650,77.194801330566400
7040,5,12116,Dev Nagar,28.656223297119140,77.187957763671880
7040,6,12288,Anand Parbat,28.657323837280273,77.184143066406250
7040,7,11022,Sarai Rohilla,28.662521362304688,77.182067871093750
7040,8,12232,Subhadra Colony,28.668920516967773,77.182899475097660
7040,9,12739,Shastri Nagar Block E,28.671302795410156,77.176101684570310
7040,10,11806,Inderlok,28.673311233520508,77.170043945312500
7040,11,12231,Wazirpur Jj Colony,28.682628631591797,77.169517517089840
7040,12,12230,Kanhaiya Nagar,28.682542800903320,77.164588928222660
7040,13,12051,Keshav Puram Block B 3,28.685773849487305,77.163055419921880
7040,14,11790,Prembari Pul,28.700014114379883,77.158462524414060
7040,15,12109,Ashok Vihar Crossing,28.702207565307617,77.165771484375000
7040,16,11324,Shalimar Bagh Crossing,28.703386306762695,77.168998718261720
7040,17,12669,Azadpur Crossing,28.710203170776367,77.175926208496100
7040,18,12495,Adarsh Nagar,28.716297149658203,77.170440673828120
7040,19,12504,Jahangirpuri Gt Road,28.724664688110350,77.163574218750000
7040,20,12496,Gtk Depot,28.731166839599610,77.158653259277340
7040,21,11505,Gtk Bypass,28.734912872314453,77.155960083007810
7040,22,11253,Libaspur,28.752302169799805,77.149482727050780
7040,23,11267,Gurudwara,28.764915466308594,77.145874023437500
7040,24,11728,Nangli Poona,28.769561767578125,77.144355773925780
7040,25,11729,Budhpur,28.781589508056640,77.141197204589840
7040,26,11268,Alipur,28.796644210815430,77.139533996582030
7040,27,12740,Palla Crossing,28.802942276000977,77.142623901367190
7040,28,11421,Bakoli,28.811759948730470,77.136375427246100
7040,29,12561,Khanpur,28.824132919311523,77.132217407226560
7040,30,11422,Tikri Khurd Crossing,28.836313247680664,77.121551513671880
7040,31,12400,Singhola Village,28.841558456420900,77.121597290039060
7040,32,11429,Singhu Village Crossing,28.841802597045900,77.127388000488280
7040,33,11854,Singhu Border,28.857213973999023,77.124473571777340
7041,1,11573,Karol Bagh Terminal,28.648414611816406,77.200660705566400
7041,2,11067,Pahar Ganj Police Station,28.646137237548828,77.208290100097660
7041,3,11787,Ajmeri Gate,28.646272659301758,77.223861694335940
7041,4,12061,Turkman Gate,28.641979217529297,77.232528686523440
7041,5,11277,Delhi Gate,28.640836715698242,77.240997314453120
7041,6,12546,Rajghat,28.641489028930664,77.246803283691400
7041,7,12816,Ito Ring Road,28.626855850219727,77.246971130371100
7041,8,12768,Delhi Secretariat,28.627910614013672,77.252380371093750
7041,9,11045,Rainywell,28.628261566162110,77.260902404785160
7041,10,12268,Tt Post,28.628004074096680,77.266441345214840
7041,11,12267,Shakarpur,28.633625030517578,77.282386779785160
7041,12,12266,Swasthya Vihar,28.639425277709960,77.292373657226560
7041,13,12265,Karkardooma Crossing,28.643129348754883,77.297554016113280
7041,14,12242,Jagatpuri Block A,28.651857376098633,77.293052673339840
7041,15,12512,Hans Apartment,28.657989501953125,77.289962768554690
7041,16,12511,Swaran Cinema,28.663631439208984,77.285636901855470
7041,17,12510,Kanti Nagar,28.670505523681640,77.280860900878900
7041,18,12241,Welcome,28.671798706054688,77.277565002441400
7041,19,12746,Seelampur,28.673505783081055,77.270202636718750
7041,20,11861,Jafrabad School,28.683456420898438,77.275215148925780
7041,21,12517,Babarpur Extension,28.685276031494140,77.282104492187500
7042,1,12761,Lajpat Nagar,28.564973831176758,77.242500305175780
7042,2,12760,Mckr Hospital,28.565256118774414,77.236030578613280
7042,3,12259,Andrews Ganj,28.565849304199220,77.230087280273440
7042,4,12530,South Extension,28.568813323974610,77.220565795898440
7042,5,12529,Aiims,28.569118499755860,77.207954406738280
7042,6,12834,Raj Nagar,28.569702148437500,77.201477050781250
7042,7,12122,Nauroji Nagar,28.569412231445312,77.195411682128900
7042,8,11628,Rk Puram Modh,28.570959091186523,77.182083129882810
7042,9,12121,Moti Bagh 1,28.579645156860350,77.178436279296880
7042,10,11579,Nanakpura,28.584804534912110,77.172271728515620
7042,11,11312,Dhaula Kuan,28.592948913574220,77.163566589355470
7042,12,12297,Garison Engineering,28.605350494384766,77.147453308105470
7042,13,12120,Barar Square,28.608760833740234,77.140037536621100
7042,14,12791,Naraina Village,28.619735717773438,77.136619567871100
7042,15,11552,Naraina Vihar,28.626178741455078,77.134490966796880
7042,16,11514,Mayapuri Chowk,28.638486862182617,77.129432678222660
7042,17,11336,Rajouri Garden,28.646005630493164,77.126640319824220
7042,18,11739,Raja Garden,28.654352188110350,77.124717712402340
7042,19,11515,Punjabi Bagh Club,28.663633346557617,77.130737304687500
7042,20,11742,Punjabi Bagh Terminal,28.667741775512695,77.137405395507810
7042,21,11193,Punjabi Bagh Extension,28.666906356811523,77.118324279785160
7042,22,12805,Road No 29 30 Crossing,28.670875549316406,77.112869262695310
7042,23,12321,Jawalaheri Market,28.669296264648438,77.105003356933600
7042,24,12322,Paschim Vihar Water Tank,28.668870925903320,77.099357604980470
7042,25,11248,Peeragarhi Depot,28.675678253173828,77.093818664550780
7042,26,11800,Peeragarhi,28.679586410522460,77.092880249023440
7042,27,12913,Udhog Nagar,28.680915832519530,77.081016540527340
7042,28,12446,Jawalapuri Nangloi Depot,28.681425094604492,77.077003479003900
7042,29,11194,Nangloi Jj Colony No 3,28.683305740356445,77.072998046875000
7042,30,11458,Sultanpuri Crossing,28.682298660278320,77.068984985351560
7042,31,11051,Nangloi,28.681777954101562,77.066894531250000
7043,1,11036,Anand Vihar Isbt,28.646951675415040,77.316032409667970
7043,2,12264,Ghazipur Depot,28.640693664550780,77.315757751464840
7043,3,11044,Hasanpur Depot,28.635795593261720,77.307395935058600
7043,4,11602,Chander Vihar,28.632843017578125,77.299194335937500
7043,5,11666,Saraswati Kunj,28.623691558837890,77.301162719726560
7043,6,12123,Mother Dairy,28.618696212768555,77.286758422851560
7043,7,12792,Shakarpur School Block,28.627044677734375,77.279418945312500
7043,8,12268,Tt Post,28.628004074096680,77.266441345214840
7043,9,11045,Rainywell,28.628261566162110,77.260902404785160
7043,10,12768,Delhi Secretariat,28.627910614013672,77.252380371093750
7043,11,12769,Ito Agcr,28.627954483032227,77.244438171386720
7043,12,12770,Mandi House,28.625720977783203,77.234222412109380
7043,13,11323,Statesman,28.630563735961914,77.223861694335940
7043,14,12100,Sucheta Kriplani Hospital,28.636579513549805,77.213966369628900
7043,15,12367,Punchkuian Road,28.641847610473633,77.204483032226560
7043,16,12098,Meghdoot Bhawan,28.644142150878906,77.200683593750000
7043,17,11065,Pusa Road Petrol Pump,28.644926071166992,77.195823669433600
7043,18,11066,Karol Bagh Metro Station,28.643871307373047,77.188285827636720
7043,19,12106,Telephone Exchange,28.643014907836914,77.182174682617190
7043,20,11024,Patel Nagar East,28.642364501953125,77.173759460449220
7043,21,12055,Patel Nagar West,28.647535324096680,77.165222167968750
7043,22,11025,Shadipur Depot,28.653007507324220,77.155685424804690
7043,23,12149,Moti Nagar,28.658462524414062,77.146659851074220
7043,24,12802,Ramesh Nagar,28.652568817138672,77.131607055664060
7043,25,11739,Raja Garden,28.654352188110350,77.124717712402340
7043,26,11903,Tagore Garden,28.643671035766600,77.112739562988280
7043,27,12579,Mukherjee Park,28.642206192016600,77.099067687988280
7043,28,12441,Sham Nagar,28.648044586181640,77.101051330566400
7043,29,12673,Khyala Re Settlement Colony,28.651992797851562,77.095344543457030
7044,1,11270,Karampura Terminal,28.660312652587890,77.143852233886720
7044,2,12802,Ramesh Nagar,28.652568817138672,77.131607055664060
7044,3,11739,Raja Garden,28.654352188110350,77.124717712402340
7044,4,11903,Tagore Garden,28.643671035766600,77.112739562988280
7044,5,12579,Mukherjee Park,28.642206192016600,77.099067687988280
7044,6,11008,Tilak Nagar,28.636688232421875,77.096191406250000
7044,7,12497,Nangli Jalib,28.632186889648438,77.084197998046880
7044,8,11506,Janakpuri District Centre,28.630233764648438,77.079315185546880
7044,9,11252,Vikaspuri Crossing,28.626575469970703,77.070297241210940
7044,10,11503,Uttam Nagar Terminal,28.625795364379883,77.065711975097660
7044,11,12729,Om Vihar,28.621206283569336,77.052665710449220
7044,12,12730,Nawada,28.620161056518555,77.045455932617190
7044,13,11507,Rama Park,28.619911193847656,77.036766052246100
7044,14,12040,Kakrola Bridge,28.619062423706055,77.029075622558600
7044,15,11508,Nangli Dairy,28.619665145874023,77.017601013183600
7044,16,12732,Najafgarh,28.612461090087890,76.986381530761720
7044,17,12498,Najafgarh Police Station Chhawla Stand,28.608919143676758,76.985328674316400
7044,18,11009,Roshanpura,28.603910446166992,76.987411499023440
7044,19,12221,Deenpur,28.590894699096680,76.993301391601560
7044,20,11994,Deenpur Colony,28.590776443481445,77.002716064453120
7044,21,12915,Goela Village,28.587499618530273,77.008567810058600
7044,22,12916,Goela Dairy,28.579776763916016,77.021492004394530
7045,1,12909,Isbt Kashmiri Gate,28.669429779052734,77.228233337402340
7045,2,11650,Raksha Vigyan Kendra,28.680469512939453,77.229270935058600
7045,3,12126,Majnu Ka Tila,28.697660446166992,77.227424621582030
7045,4,12302,Wazirabad Crossing,28.710847854614258,77.227142333984380
7045,5,11078,Jagatpur Crossing,28.722248077392578,77.216247558593750
7045,6,12534,Burari Crossing,28.728748321533203,77.196434020996100
7045,7,12263,Mukandpur Crossing,28.731805801391600,77.184913635253900
7045,8,12179,Jahangirpuri Outer Ring Road,28.733123779296875,77.179870605468750
7045,9,11029,Bhalswa Crossing,28.737543106079100,77.165946960449220
7045,10,11505,Gtk Bypass,28.734912872314453,77.155960083007810
7045,11,11007,Badli Crossing,28.728519439697266,77.146354675292970
7045,12,11027,Badli School,28.727201461791992,77.143386840820310
7045,13,11853,Rohini Sector 19 Police Chowki,28.732442855834960,77.140106201171880
7045,14,11389,Rohini Sector 17 Crossing,28.741416931152344,77.119956970214840
7045,15,11249,Delhi Engineering College Shahbad,28.744831085205078,77.117675781250000
7045,16,12219,Shahbad Daulatpur,28.745571136474610,77.107322692871100
7045,17,11250,St Michael School,28.745988845825195,77.101524353027340
7045,18,11251,Shahbad Dairy,28.745811462402344,77.098533630371100
7045,19,11605,Prahladpur School,28.752641677856445,77.075523376464840
7045,20,11131,Barthwal Pathshala,28.759042739868164,77.062805175781250
7045,21,11606,Barthwal,28.761169433593750,77.058006286621100
7045,22,12369,Asthal Pooth,28.765064239501953,77.054100036621100
7045,23,11607,Pooth Khurd,28.772727966308594,77.048973083496100
7045,24,11931,Dhakewala,28.787332534790040,77.040283203125000
7045,25,12848,Bawana School,28.797252655029297,77.035186767578120
7045,26,12084,Bawana,28.800325393676758,77.036231994628900
7045,27,11047,Bawana Depot,28.804178237915040,77.027854919433600
7045,28,11766,Daryapur School,28.811649322509766,77.010803222656250
7045,29,12772,Daryapur,28.816659927368164,77.006736755371100
7045,30,11048,Harewali Crossing,28.818889617919922,77.002227783203120
7045,31,11304,Auchandi School,28.819917678833008,76.998764038085940
7045,32,11305,Auchandi Village,28.821193695068360,76.995429992675780
7045,33,12773,Auchandi Border,28.828880310058594,76.988471984863280
7045,34,11555,Mungeshpur,28.817184448242188,76.973388671875000
7045,35,12625,Katevda Crossing,28.806066513061523,76.965904235839840
7046,1,11113,Safdarjung Terminal,28.579696655273438,77.213371276855470
7046,2,11778,Ina Market,28.579391479492188,77.208480834960940
7046,3,12298,Sj Hospital,28.569580078125000,77.204544067382810
7046,4,12122,Nauroji Nagar,28.569412231445312,77.195411682128900
7046,5,11628,Rk Puram Modh,28.570959091186523,77.182083129882810
7046,6,12121,Moti Bagh 1,28.579645156860350,77.178436279296880
7046,7,11579,Nanakpura,28.584804534912110,77.172271728515620
7046,8,11312,Dhaula Kuan,28.592948913574220,77.163566589355470
7046,9,11773,Rr Line,28.595876693725586,77.150886535644530
7046,10,12297,Garison Engineering,28.605350494384766,77.147453308105470
7046,11,12120,Barar Square,28.608760833740234,77.140037536621100
7046,12,12791,Naraina Village,28.619735717773438,77.136619567871100
7046,13,11552,Naraina Vihar,28.626178741455078,77.134490966796880
7046,14,11514,Mayapuri Chowk,28.638486862182617,77.129432678222660
7046,15,11336,Rajouri Garden,28.646005630493164,77.126640319824220
7046,16,11739,Raja Garden,28.654352188110350,77.124717712402340
7046,17,11515,Punjabi Bagh Club,28.663633346557617,77.130737304687500
7046,18,11742,Punjabi Bagh Terminal,28.667741775512695,77.137405395507810
7046,19,11348,Shivaji Park,28.674852371215820,77.130935668945310
7046,20,11349,Madipur Village,28.675785064697266,77.123992919921880
7046,21,11893,Madipur Jj Colony,28.676357269287110,77.120330810546880
7046,22,11899,Ordinance Depot,28.677055358886720,77.114875793457030
7046,23,12137,Multan Nagar,28.678037643432617,77.105651855468750
7046,24,12033,Peeragarhi Chowk,28.679052352905273,77.096260070800780
7046,25,12217,Mangolpuri Block B,28.689556121826172,77.096603393554690
7046,26,11326,Mangolpuri Block S,28.692361831665040,77.081985473632810
7046,27,12317,Mangolpuri Block Q,28.687932968139650,77.082984924316400
7047,1,12820,Jln Stadium,28.590400695800780,77.233253479003900
7047,2,11789,Lodhi Colony,28.585901260375977,77.221176147460940
7047,3,11812,Jorbagh Sj Madarsa,28.587993621826172,77.212829589843750
7047,4,12077,Sj Airport,28.584251403808594,77.212532043457030
7047,5,12528,Ina,28.575256347656250,77.209350585937500
7047,6,12298,Sj Hospital,28.569580078125000,77.204544067382810
7047,7,12122,Nauroji Nagar,28.569412231445312,77.195411682128900
7047,8,11337,Rk Puram Corner,28.569921493530273,77.184402465820310
7047,9,12121,Moti Bagh 1,28.579645156860350,77.178436279296880
7047,10,11579,Nanakpura,28.584804534912110,77.172271728515620
7047,11,11312,Dhaula Kuan,28.592948913574220,77.163566589355470
7047,12,12544,Golf Club,28.592908859252930,77.158355712890620
7047,13,11773,Rr Line,28.595876693725586,77.150886535644530
7047,14,12275,Signal Officer Flats,28.600706100463867,77.138305664062500
7047,15,12092,Kirby Place,28.605155944824220,77.126853942871100
7047,16,12545,Janak Setu,28.607530593872070,77.121063232421880
7047,17,11559,Lajwanti Garden,28.614349365234375,77.106918334960940
7047,18,12867,Hari Nagar Depot,28.623907089233400,77.101951599121100
7047,19,11156,Hari Nagar Block G,28.627767562866210,77.100280761718750
7047,20,11008,Tilak Nagar,28.636688232421875,77.096191406250000
7048,1,11008,Tilak Nagar,28.636688232421875,77.096191406250000
7048,2,12497,Nangli Jalib,28.632186889648438,77.084197998046880
7048,3,11506,Janakpuri District Centre,28.630233764648438,77.079315185546880
7048,4,11252,Vikaspuri Crossing,28.626575469970703,77.070297241210940
7048,5,11503,Uttam Nagar Terminal,28.625795364379883,77.065711975097660
7048,6,12729,Om Vihar,28.621206283569336,77.052665710449220
7048,7,12730,Nawada,28.620161056518555,77.045455932617190
7048,8,11507,Rama Park,28.619911193847656,77.036766052246100
7048,9,12040,Kakrola Bridge,28.619062423706055,77.029075622558600
7048,10,11508,Nangli Dairy,28.619665145874023,77.017601013183600
7048,11,11258,Nangli Sakrawati,28.615682601928710,77.005996704101560
7048,12,12732,Najafgarh,28.612461090087890,76.986381530761720
7048,13,12042,Najafgarh Police Station Nangloi Stand,28.609739303588867,76.982727050781250
7048,14,11511,Ghumanhera Crossing,28.611143112182617,76.974990844726560
7048,15,12434,Nanak Piao,28.609285354614258,76.967002868652340
7048,16,12435,Indira Service Station,28.608278274536133,76.959495544433600
7048,17,11983,Mitraon,28.608392715454100,76.945381164550780
7048,18,11670,Mitraon School,28.606985092163086,76.939292907714840
7048,19,11447,Surehra Crossing,28.603946685791016,76.932075500488280
7048,20,12902,Rawat Crossing,28.600404739379883,76.915725708007810
7048,21,11198,Mata Dankaur Public School,28.597427368164062,76.899261474609380
7048,22,11885,Mundhela Crossing,28.597766876220703,76.895210266113280
7048,23,12919,Mundhela School,28.605201721191406,76.893768310546880
7048,24,12920,Mundhela Kalan,28.610877990722656,76.892807006835940
7048,25,11460,Mundhela Khurd,28.617395401000977,76.893043518066400
7049,1,11312,Dhaula Kuan,28.592948913574220,77.163566589355470
7049,2,11579,Nanakpura,28.584804534912110,77.172271728515620
7049,3,11086,Moti Bagh,28.579822540283203,77.178657531738280
7049,4,11818,Rk Puram Crossing,28.568355560302734,77.183723449707030
7049,5,12122,Nauroji Nagar,28.569412231445312,77.195411682128900
7049,6,12298,Sj Hospital,28.569580078125000,77.204544067382810
7049,7,12529,Aiims,28.569118499755860,77.207954406738280
7049,8,12530,South Extension,28.568813323974610,77.220565795898440
7049,9,12259,Andrews Ganj,28.565849304199220,77.230087280273440
7049,10,12760,Mckr Hospital,28.565256118774414,77.236030578613280
7049,11,12761,Lajpat Nagar,28.564973831176758,77.242500305175780
7049,12,11542,Nehru Nagar,28.568733215332030,77.253913879394530
7049,13,11755,Ashram,28.571836471557617,77.258979797363280
7049,14,11781,Maharani Bagh,28.574829101562500,77.261940002441400
7049,15,11463,Toll Bridge Corner,28.577610015869140,77.266113281250000
7049,16,11464,Yamuna Bridge West,28.576650619506836,77.286888122558600
7049,17,11142,Noida Sector 27,28.574434280395508,77.328849792480470
7049,18,12450,Noida Sector 19,28.581111907958984,77.323974609375000
7049,19,11202,Noida Sector 21,28.588104248046875,77.338348388671880
7049,20,12436,Noida Sector 10,28.587932586669922,77.333290100097660
7049,21,11134,Noida Sector 12 22,28.599203109741210,77.345504760742190
7049,22,12686,Noida Sector 22,28.597061157226562,77.348236083984380
7049,23,11689,Noida Sector 11,28.599632263183594,77.340454101562500
7049,24,12058,Jhundpura,28.597263336181640,77.331367492675780
7049,25,11748,Mayur Vihar Phase 3 Crossing,28.601528167724610,77.327247619628900
7049,26,11328,New Kondli Market,28.603313446044922,77.330032348632810
7049,27,11329,Mayur Vihar Phase 2,28.620172500610350,77.304763793945310
7050,1,11338,Rk Puram Sector 1,28.561647415161133,77.180877685546880
7050,2,11628,Rk Puram Modh,28.570959091186523,77.182083129882810
7050,3,11086,Moti Bagh,28.579822540283203,77.178657531738280
7050,4,11579,Nanakpura,28.584804534912110,77.172271728515620
7050,5,11312,Dhaula Kuan,28.592948913574220,77.163566589355470
7050,6,11773,Rr Line,28.595876693725586,77.150886535644530
7050,7,12297,Garison Engineering,28.605350494384766,77.147453308105470
7050,8,12120,Barar Square,28.608760833740234,77.140037536621100
7050,9,12791,Naraina Village,28.619735717773438,77.136619567871100
7050,10,11552,Naraina Vihar,28.626178741455078,77.134490966796880
7050,11,11780,Mayapuri Depot,28.636665344238280,77.128707885742190
7050,12,11336,Rajouri Garden,28.646005630493164,77.126640319824220
7050,13,11739,Raja Garden,28.654352188110350,77.124717712402340
7050,14,11515,Punjabi Bagh Club,28.663633346557617,77.130737304687500
7050,15,11742,Punjabi Bagh Terminal,28.667741775512695,77.137405395507810
7050,16,12045,Britania Biscuit Factory,28.680782318115234,77.142784118652340
7050,17,11062,Mahindra Park,28.684011459350586,77.136062622070310
7050,18,11567,Lok Vihar,28.692575454711914,77.135116577148440
7050,19,11517,Kohat Enclave,28.696809768676758,77.142829895019530
7050,20,12455,Guru Gobind Singh College,28.697975158691406,77.151451110839840
7050,21,11691,Maurya Enclave Block K D,28.700338363647460,77.141021728515620
7050,22,11204,Parshant Vihar Crossing,28.716749191284180,77.139266967773440
7050,23,11831,Sachdeva Public School,28.724782943725586,77.129089355468750
7050,24,11930,Rohini Depot 2,28.729555130004883,77.121833801269530
7050,25,11465,Rohini Sector 11,28.734249114990234,77.115577697753900
7050,26,11999,Rohini Sector 16 Crossing,28.744209289550780,77.120422363281250
7051,1,11528,Old Delhi Railway Station,28.659685134887695,77.231674194335940
7051,2,12515,Red Fort,28.653621673583984,77.236427307128900
7051,3,12062,Daryaganj,28.643184661865234,77.240386962890620
7051,4,11277,Delhi Gate,28.640836715698242,77.240997314453120
7051,5,12061,Turkman Gate,28.641979217529297,77.232528686523440
7051,6,12245,Vivekanand Marg,28.641904830932617,77.226608276367190
7051,7,11788,Super Bazaar,28.633050918579100,77.223068237304690
7051,8,12101,Palika Kendra,28.628593444824220,77.216880798339840
7051,9,12090,All India Radio Ndpo,28.621789932250977,77.211669921875000
7051,10,11757,Krishi Bhawan,28.616844177246094,77.213714599609380
7051,11,12075,Sunehari Masjid Block G,28.609672546386720,77.210098266601560
7051,12,12527,Tughlak Road Police Station,28.600152969360350,77.211357116699220
7051,13,12399,Race Course,28.597606658935547,77.211166381835940
7051,14,11418,Ashoka Hotel,28.594276428222656,77.196014404296880
7051,15,12872,Vinay Marg,28.587474822998047,77.194091796875000
7051,16,11061,Sn Depot,28.573728561401367,77.189979553222660
7051,17,12566,Mohammadpur,28.564794540405273,77.189064025878900
7051,18,11087,Rk Puram Sector 3,28.556774139404297,77.184532165527340
7051,19,11338,Rk Puram Sector 1,28.561647415161133,77.180877685546880
7051,20,12563,Munirka,28.557918548583984,77.173225402832030
7051,21,12689,Baba Gang Nath Marg Crossing,28.553522109985350,77.166366577148440
7051,22,12000,Hill Area Mall,28.540205001831055,77.156555175781250
7051,23,12188,Vasant Kunj Police Station Pocket C 8,28.533332824707030,77.151390075683600
7051,24,12690,Kathuria Public School,28.531845092773438,77.144996643066400
7051,25,11466,Vasant Kunj Pocket C,28.536764144897460,77.139915466308600
7052,1,11256,Gtb Nagar,28.697750091552734,77.207260131835940
7052,2,12766,Dhaka Village,28.707094192504883,77.204673767089840
7052,3,11763,Nirankari Colony,28.714567184448242,77.204017639160160
7052,4,12534,Burari Crossing,28.728748321533203,77.196434020996100
7052,5,12926,Jhoroda Modh,28.734737396240234,77.197700500488280
7052,6,12457,Jhoroda Village,28.730861663818360,77.208877563476560
7053,1,12288,Anand Parbat,28.657323837280273,77.184143066406250
7053,2,12116,Dev Nagar,28.656223297119140,77.187957763671880
7053,3,11057,Desh Bandhu Gupta Market,28.651800155639650,77.194801330566400
7053,4,11573,Karol Bagh Terminal,28.648414611816406,77.200660705566400
7053,5,11059,Mandir Marg,28.637865066528320,77.202964782714840
7053,6,12553,Laxmi Narain Mandir,28.632495880126953,77.199317932128900
7053,7,12236,Rml Hospital,28.624507904052734,77.201179504394530
7053,8,12742,Kendriya Terminal,28.617433547973633,77.204261779785160
7053,9,12090,All India Radio Ndpo,28.621789932250977,77.211669921875000
7053,10,11757,Krishi Bhawan,28.616844177246094,77.213714599609380
7053,11,12075,Sunehari Masjid Block G,28.609672546386720,77.210098266601560
7053,12,12527,Tughlak Road Police Station,28.600152969360350,77.211357116699220
7053,13,12399,Race Course,28.597606658935547,77.211166381835940
7053,14,11418,Ashoka Hotel,28.594276428222656,77.196014404296880
7053,15,12872,Vinay Marg,28.587474822998047,77.194091796875000
7053,16,11061,Sn Depot,28.573728561401367,77.189979553222660
7053,17,12566,Mohammadpur,28.564794540405273,77.189064025878900
7053,18,11087,Rk Puram Sector 3,28.556774139404297,77.184532165527340
7053,19,11469,Rk Puram,28.566007614135742,77.176742553710940
7054,1,11394,Mayur Vihar Phase 3,28.608533859252930,77.337333679199220
7054,2,11838,Gharoli Village,28.620889663696290,77.335586547851560
7054,3,12854,Gharoli Dairy Farm,28.612646102905273,77.331008911132810
7054,4,11693,Kondli Village,28.608207702636720,77.329574584960940
7054,5,12787,Kalyanpuri,28.617378234863280,77.317230224609380
7054,6,11612,Chand Cinema,28.612783432006836,77.311614990234380
7054,7,11611,Trilokpuri Block 13,28.612672805786133,77.308410644531250
7054,8,12630,Trilokpuri Block 26,28.608430862426758,77.305274963378900
7054,9,12897,Mayur Vihar Phase 1,28.604831695556640,77.296577453613280
7054,10,12124,Mayur Vihar Phase 1 Crossing,28.604162216186523,77.288749694824220
7054,11,11071,Pushta Crossing,28.612668991088867,77.283638000488280
7054,12,11816,Cpwd Office,28.603881835937500,77.269119262695310
7054,13,12603,Baba Bishamber Dass Ashram,28.600315093994140,77.261352539062500
7054,14,12427,Bridge Road East,28.598731994628906,77.255584716796880
7054,15,11344,Sarai Kale Khan,28.588951110839844,77.258811950683600
7054,16,12171,Bala Sahib Gurudwara,28.581493377685547,77.266326904296880
7054,17,11781,Maharani Bagh,28.574829101562500,77.261940002441400
7054,18,11755,Ashram,28.571836471557617,77.258979797363280
7054,19,11542,Nehru Nagar,28.568733215332030,77.253913879394530
7054,20,12761,Lajpat Nagar,28.564973831176758,77.242500305175780
7054,21,12760,Mckr Hospital,28.565256118774414,77.236030578613280
7054,22,12259,Andrews Ganj,28.565849304199220,77.230087280273440
7054,23,12530,South Extension,28.568813323974610,77.220565795898440
7054,24,12529,Aiims,28.569118499755860,77.207954406738280
7054,25,12298,Sj Hospital,28.569580078125000,77.204544067382810
7054,26,12691,Kamal Cinema,28.565256118774414,77.198913574218750
7054,27,12692,Sj Enclave,28.566091537475586,77.191253662109380
7054,28,11087,Rk Puram Sector 3,28.556774139404297,77.184532165527340
7054,29,11338,Rk Puram Sector 1,28.561647415161133,77.180877685546880
7054,30,12131,M Singh Market,28.566658020019530,77.176094055175780
7054,31,11648,Rk Puram Crossing Sector 7,28.571659088134766,77.172325134277340
7054,32,11100,Rk Puram Sector 8,28.569692611694336,77.165527343750000
7054,33,11101,Vasant Village,28.573141098022460,77.160964965820310
7054,34,12388,Rla College,28.578569412231445,77.162498474121100
7054,35,11312,Dhaula Kuan,28.592948913574220,77.163566589355470
7055,1,11008,Tilak Nagar,28.636688232421875,77.096191406250000
7055,2,11156,Hari Nagar Block G,28.627767562866210,77.100280761718750
7055,3,12867,Hari Nagar Depot,28.623907089233400,77.101951599121100
7055,4,11018,Hari Nagar Clock Tower,28.624692916870117,77.110389709472660
7055,5,12291,Beriwala Bagh,28.631456375122070,77.112037658691400
7055,6,11019,Metal Forging,28.630645751953125,77.124267578125000
7055,7,11514,Mayapuri Chowk,28.638486862182617,77.129432678222660
7055,8,11263,Rajouri Garden Ring Road,28.643730163574220,77.127532958984380
7055,9,11739,Raja Garden,28.654352188110350,77.124717712402340
7055,10,11515,Punjabi Bagh Club,28.663633346557617,77.130737304687500
7055,11,11742,Punjabi Bagh Terminal,28.667741775512695,77.137405395507810
7055,12,11348,Shivaji Park,28.674852371215820,77.130935668945310
7055,13,11694,Madipur,28.672910690307617,77.121192932128900
7055,14,11893,Madipur Jj Colony,28.676357269287110,77.120330810546880
7055,15,11899,Ordinance Depot,28.677055358886720,77.114875793457030
7055,16,12661,Multan Nagar Jwalaheri Crossing,28.676977157592773,77.113624572753900
7055,17,11800,Peeragarhi,28.679586410522460,77.092880249023440
7055,18,11089,Jawalapuri,28.681255340576172,77.079315185546880
7055,19,11051,Nangloi,28.681777954101562,77.066894531250000
7055,20,11050,Nangloi Jj Colony,28.682102203369140,77.054458618164060
7056,1,12039,Azadpur,28.708120346069336,77.177749633789060
7056,2,12495,Adarsh Nagar,28.716297149658203,77.170440673828120
7056,3,11006,Jahangirpuri Crossing,28.727268218994140,77.162574768066400
7056,4,12496,Gtk Depot,28.731166839599610,77.158653259277340
7056,5,11505,Gtk Bypass,28.734912872314453,77.155960083007810
7056,6,11253,Libaspur,28.752302169799805,77.149482727050780
7056,7,11267,Gurudwara,28.764915466308594,77.145874023437500
7056,8,12458,Nangi Poonam Suripur,28.772689819335938,77.143127441406250
7056,9,11660,Khera Kalan School,28.770780563354492,77.124374389648440
7056,10,12419,Khera Kalan,28.772165298461914,77.115707397460940
7056,11,11438,Khera Khurd,28.776371002197266,77.099754333496100
7056,12,12663,Khera Khurd School,28.778247833251953,77.097961425781250
7056,13,11169,Holambi Khurd School,28.793312072753906,77.095581054687500
7056,14,12494,Holambi Khurd,28.799728393554688,77.096122741699220
7056,15,12220,Holambi Kalan,28.802642822265625,77.096122741699220
7056,16,11730,Holambi Crossing,28.796737670898438,77.117538452148440
7056,17,11384,Shahpur Garh,28.817737579345703,77.102531433105470
7056,18,11821,Bhore Garh,28.829294204711914,77.094619750976560
7056,19,11687,Kureni,28.843719482421875,77.089378356933600
7056,20,12536,Narela Mandi,28.845731735229492,77.088912963867190
7056,21,11645,Narela Terminal,28.851982116699220,77.087974548339840
7057,1,12742,Kendriya Terminal,28.617433547973633,77.204261779785160
7057,2,12236,Rml Hospital,28.624507904052734,77.201179504394530
7057,3,12235,Ndpo,28.626352310180664,77.205436706542970
7057,4,12101,Palika Kendra,28.628593444824220,77.216880798339840
7057,5,12100,Sucheta Kriplani Hospital,28.636579513549805,77.213966369628900
7057,6,11205,Gole Market Chitra Gupta Road,28.639629364013672,77.208000183105470
7057,7,11067,Pahar Ganj Police Station,28.646137237548828,77.208290100097660
7057,8,11206,Karol Bagh Terminal Ggs Road Crossing,28.648191452026367,77.200752258300780
7057,9,12550,Filmistan,28.658660888671875,77.202987670898440
7057,10,11577,Azad Market,28.663154602050780,77.207077026367190
7057,11,11740,Ice Factory,28.667798995971680,77.209869384765620
7057,12,12741,Roshanara Bagh,28.671819686889650,77.200904846191400
7057,13,12505,Clock Tower,28.673240661621094,77.201873779296880
7057,14,12234,Kamla Nagar,28.683214187622070,77.201072692871100
7057,15,12053,Maurice Nagar,28.686655044555664,77.205917358398440
7057,16,11256,Gtb Nagar,28.697750091552734,77.207260131835940
7057,17,12006,Dakka,28.707094192504883,77.204566955566400
7057,18,11763,Nirankari Colony,28.714567184448242,77.204017639160160
7057,19,12534,Burari Crossing,28.728748321533203,77.196434020996100
7057,20,12840,Jharoda Dairy Crossing,28.735059738159180,77.197303771972660
7057,21,11094,Sant Nagar East Of Kailash,28.738222122192383,77.197471618652340
7057,22,12195,Baba Colony,28.742347717285156,77.197715759277340
7058,1,12742,Kendriya Terminal,28.617433547973633,77.204261779785160
7058,2,12236,Rml Hospital,28.624507904052734,77.201179504394530
7058,3,12235,Ndpo,28.626352310180664,77.205436706542970
7058,4,12101,Palika Kendra,28.628593444824220,77.216880798339840
7058,5,11788,Super Bazaar,28.633050918579100,77.223068237304690
7058,6,12245,Vivekanand Marg,28.641904830932617,77.226608276367190
7058,7,12061,Turkman Gate,28.641979217529297,77.232528686523440
7058,8,11277,Delhi Gate,28.640836715698242,77.240997314453120
7058,9,12062,Daryaganj,28.643184661865234,77.240386962890620
7058,10,12515,Red Fort,28.653621673583984,77.236427307128900
7058,11,12727,Isbt,28.668561935424805,77.227951049804690
7058,12,12037,Ip College,28.680036544799805,77.223548889160160
7058,13,11005,Old Secretariat,28.684141159057617,77.222259521484380
7058,14,12728,Mall Road,28.693445205688477,77.218879699707030
7058,15,11731,Ins Hostel,28.696075439453125,77.211784362792970
7058,16,11256,Gtb Nagar,28.697750091552734,77.207260131835940
7058,17,12575,Bbm Depot,28.704088211059570,77.211273193359380
7058,18,11357,Bhai Parmanand Colony,28.709842681884766,77.206832885742190
7058,19,12145,Dhaka,28.707031250000000,77.204643249511720
7058,20,11763,Nirankari Colony,28.714567184448242,77.204017639160160
7058,21,12534,Burari Crossing,28.728748321533203,77.196434020996100
7058,22,12840,Jharoda Dairy Crossing,28.735059738159180,77.197303771972660
7058,23,11094,Sant Nagar East Of Kailash,28.738222122192383,77.197471618652340
7058,24,12146,Burari Village,28.753213882446290,77.198822021484380
7058,25,11595,Loniyan Ind,28.758310317993164,77.194671630859380
7058,26,12696,Kaushik Enclave,28.760860443115234,77.189353942871100
7058,27,11122,Nathupura Crossing,28.769187927246094,77.180366516113280
7058,28,11699,Nathupur,28.769277572631836,77.174415588378900
7059,1,12742,Kendriya Terminal,28.617433547973633,77.204261779785160
7059,2,12090,All India Radio Ndpo,28.621789932250977,77.211669921875000
7059,3,11757,Krishi Bhawan,28.616844177246094,77.213714599609380
7059,4,12075,Sunehari Masjid Block G,28.609672546386720,77.210098266601560
7059,5,12527,Tughlak Road Police Station,28.600152969360350,77.211357116699220
7059,6,12076,Sj Madrasa,28.588256835937500,77.212974548339840
7059,7,12077,Sj Airport,28.584251403808594,77.212532043457030
7059,8,11778,Ina Market,28.579391479492188,77.208480834960940
7059,9,11060,Sarojini Nagar Market,28.579565048217773,77.197296142578120
7059,10,11061,Sn Depot,28.573728561401367,77.189979553222660
7059,11,12566,Mohammadpur,28.564794540405273,77.189064025878900
7059,12,11087,Rk Puram Sector 3,28.556774139404297,77.184532165527340
7059,13,11338,Rk Puram Sector 1,28.561647415161133,77.180877685546880
7059,14,12563,Munirka,28.557918548583984,77.173225402832030
7059,15,11339,Jnu,28.549715042114258,77.180610656738280
7059,16,12390,Ber Sarai,28.549564361572266,77.180442810058600
7059,17,11414,Fai,28.543386459350586,77.180145263671880
7059,18,12191,Icssr,28.531147003173828,77.171119689941400
7059,19,12003,Kishan Garh Crossing,28.521682739257812,77.167633056640620
7059,20,12222,Kishan Garh,28.514333724975586,77.164443969726560
